upload_row_number,address,matched_address,status,latitude,longitude,lat_long_coordinates
1,"99 Southport Avenue, Chicago, IL","2045 N SOUTHPORT AVE, CHICAGO, IL",CLOSEST ADDRESS,41.91892085045187,-87.66302724345594,41.91892085045187;-87.66302724345594
2,"2900 North PAULINA Street, Chicago, IL","2900 N PAULINA ST, CHICAGO, IL",nan,41.9342753614757,-87.67104181677936,41.9342753614757;-87.67104181677936
3,"2900 North PAULINA Street, Chicago, IL","2900 N PAULINA ST, CHICAGO, IL",nan,41.9342753614757,-87.67104181677936,41.9342753614757;-87.67104181677936
4,"2900 North PAULINA Street, Chicago, IL","2900 N PAULINA ST, CHICAGO, IL",nan,41.9342753614757,-87.67104181677936,41.9342753614757;-87.67104181677936
5,"3 South Princeton Avenue, Chicago, IL",nan,BADADDRESSNUM,,,---
6,"3 South Princeton Avenue, Chicago, IL",nan,BADADDRESSNUM,,,---
7,"4 Commonwealth Avenue, Chicago, IL",nan,BADADDRESSNUM,,,---
8,"4 Commonwealth Avenue, Chicago, IL",nan,BADADDRESSNUM,,,---
9,"4 Commonwealth Avenue, Chicago, IL",nan,BADADDRESSNUM,,,---
10,"5450 WESTERN Avenue, Chicago, IL",nan,AMBIGUOUS,,,---
11,"6 Milwaukee Avenue, Chicago, IL",nan,BADADDRESSNUM,,,---
12,"2006 Milwaukee Avenue, Chicago, IL","2006 N MILWAUKEE AVE, CHICAGO, IL",PRE_DIR CORRECTION,41.91770245734654,-87.6890540918701,41.91770245734654;-87.6890540918701
13,"428 St James Place, Chicago, IL","428 W ST JAMES PL, CHICAGO, IL",PRE_DIR CORRECTION,41.928405947644016,-87.64037164543811,41.928405947644016;-87.64037164543811
14,"428 St James Place, Chicago, IL","428 W ST JAMES PL, CHICAGO, IL",PRE_DIR CORRECTION,41.928405947644016,-87.64037164543811,41.928405947644016;-87.64037164543811
15,"428 St James Place, Chicago, IL","428 W ST JAMES PL, CHICAGO, IL",PRE_DIR CORRECTION,41.928405947644016,-87.64037164543811,41.928405947644016;-87.64037164543811
16,"2006 Marshall Boulevard, Chicago, IL","2006 S MARSHALL BLVD, CHICAGO, IL",PRE_DIR CORRECTION,41.85398474919005,-87.69930651582922,41.85398474919005;-87.69930651582922
17,"6 North Oliphant Avenue, Chicago, IL",nan,BADADDRESSNUM,,,---
18,"6 North Oliphant Avenue, Chicago, IL",nan,BADADDRESSNUM,,,---
19,"6 North Oliphant Avenue, Chicago, IL",nan,BADADDRESSNUM,,,---
20,"2006 North Oliphant Avenue, Chicago, IL",nan,BADADDRESSNUM,,,---
21,"7 South Kedzie Avenue, Chicago, IL","7 S KEDZIE AVE, CHICAGO, IL",nan,41.88072129248101,-87.70596841178207,41.88072129248101;-87.70596841178207
22,"7 James McNaughton-Pershing Road, Chicago, IL",nan,BADSTREET,,,---
23,"7 James McNaughton-Pershing Road, Chicago, IL",nan,BADSTREET,,,---
24,"7 James McNaughton-Pershing Road, Chicago, IL",nan,BADSTREET,,,---
25,"7 James McNaughton-Pershing Road, Chicago, IL",nan,BADSTREET,,,---
26,"1453 North California Avenue, Chicago, IL","1453 N CALIFORNIA AVE, CHICAGO, IL",nan,41.90813805369189,-87.69685998545472,41.90813805369189;-87.69685998545472
27,"345 North Canal Street, Chicago, IL","345 N CANAL ST, CHICAGO, IL",nan,41.888165819563646,-87.63981481294968,41.888165819563646;-87.63981481294968
28,"1453 North California Avenue, Chicago, IL","1453 N CALIFORNIA AVE, CHICAGO, IL",nan,41.90813805369189,-87.69685998545472,41.90813805369189;-87.69685998545472
29,"2712 North Artesian Avenue, Chicago, IL","2712 N ARTESIAN AVE, CHICAGO, IL",nan,41.93076596413419,-87.68922585119634,41.93076596413419;-87.68922585119634
30,"1525 North Claremont Avenue, Chicago, IL","1525 N CLAREMONT AVE, CHICAGO, IL",nan,41.90928301103856,-87.68582664829809,41.90928301103856;-87.68582664829809
31,"1868 N Milwaukee Ave, Chicago, IL","1868 N MILWAUKEE AVE, CHICAGO, IL",nan,41.91532130402486,-87.6853251674383,41.91532130402486;-87.6853251674383
32,"7653 South Ashland Avenue, Chicago, IL","7653 S ASHLAND AVE, CHICAGO, IL",nan,41.754256893268945,-87.66338550564976,41.754256893268945;-87.66338550564976
33,"7653 South Ashland Avenue, Chicago, IL","7653 S ASHLAND AVE, CHICAGO, IL",nan,41.754256893268945,-87.66338550564976,41.754256893268945;-87.66338550564976
34,"7653 South Ashland Avenue, Chicago, IL","7653 S ASHLAND AVE, CHICAGO, IL",nan,41.754256893268945,-87.66338550564976,41.754256893268945;-87.66338550564976
35,"161 North Peoria Avenue, Chicago, IL","161 N PEORIA ST, CHICAGO, IL",STREET_TYPE CORRECTION,41.88484301533086,-87.6496383353533,41.88484301533086;-87.6496383353533
36,"161 North Peoria Avenue, Chicago, IL","161 N PEORIA ST, CHICAGO, IL",STREET_TYPE CORRECTION,41.88484301533086,-87.6496383353533,41.88484301533086;-87.6496383353533
37,"7101-7149 South Chicago Avenue, Chicago, IL","7101-7149 S SOUTH CHICAGO AVE, CHICAGO, IL",PRE_DIR CORRECTION -transid is calculated using low address only,41.765877743513,-87.60538470110453,41.765877743513;-87.60538470110453
38,"8561 South Chicago Avenue, Chicago, IL","8561 S SOUTH CHICAGO AVE, CHICAGO, IL",PRE_DIR CORRECTION,41.73953547198774,-87.56873927059479,41.73953547198774;-87.56873927059479
39,"8561 South Chicago Avenue, Chicago, IL","8561 S SOUTH CHICAGO AVE, CHICAGO, IL",PRE_DIR CORRECTION,41.73953547198774,-87.56873927059479,41.73953547198774;-87.56873927059479
40,"8561 South Chicago Avenue, Chicago, IL","8561 S SOUTH CHICAGO AVE, CHICAGO, IL",PRE_DIR CORRECTION,41.73953547198774,-87.56873927059479,41.73953547198774;-87.56873927059479
41,"3155 South Lake Shore Drive, Chicago, IL","3155 S JEAN BAPTISTE POINTE DUSABLE LAKE SHORE DR NB, CHICAGO, IL",ALIAS SUF_DIR TIE BREAKER,41.836187355486274,-87.60767903132712,41.836187355486274;-87.60767903132712
42,"4336 W Armitage Ave, Chicago, IL","4336 W ARMITAGE AVE, CHICAGO, IL",nan,41.91716477306698,-87.73539698108307,41.91716477306698;-87.73539698108307
43,"2731 N Wilton St, Chicago, IL","2731 N WILTON AVE, CHICAGO, IL",STREET_TYPE CORRECTION,41.931782041559956,-87.65246435791526,41.931782041559956;-87.65246435791526
44,"2000-2006 W Warren Ave, Chicago, IL","2000-2006 W WARREN BLVD, CHICAGO, IL",COMMON STREET ALIAS -transid is calculated using low address only,41.88233985932603,-87.67678798796877,41.88233985932603;-87.67678798796877
45,"W Walnut St and N Albany Ave, Chicago, IL",nan,BADSTREET,,,---
46,"W Bryn Mawr Ave and N Sheridan Rd, Chicago, IL",nan,BADSTREET,,,---
47,"7358 S Kostner Ave, Chicago, IL","7358 S KOSTNER AVE, CHICAGO, IL",nan,41.75909295284009,-87.7326712973693,41.75909295284009;-87.7326712973693
48,"2954 N Racine Ave, Chicago, IL","2954 N RACINE AVE, CHICAGO, IL",nan,41.93602075530568,-87.65897956913082,41.93602075530568;-87.65897956913082
49,"1063 W Lawrence Ave, Chicago, IL","1063 W LAWRENCE AVE, CHICAGO, IL",nan,41.96894691748862,-87.6573154906776,41.96894691748862;-87.6573154906776
50,"4550 N Winchester Ave, Chicago, IL","4550 N WINCHESTER AVE, CHICAGO, IL",nan,41.96459864001804,-87.67773316403523,41.96459864001804;-87.67773316403523
51,"3527 S Wallace St, Chicago, IL","3527 S WALLACE ST, CHICAGO, IL",nan,41.829989616224736,-87.64106578961876,41.829989616224736;-87.64106578961876
52,"650 N Oakley Ave, Chicago, IL","650 N OAKLEY BLVD, CHICAGO, IL",COMMON STREET ALIAS,41.89360864660565,-87.68448199505673,41.89360864660565;-87.68448199505673
53,"1120 W Wolfram Ave, Chicago, IL","1120 W WOLFRAM ST, CHICAGO, IL",STREET_TYPE CORRECTION,41.9336012507328,-87.65719375513291,41.9336012507328;-87.65719375513291
54,"S Greenwood Ave and S Ingleside Ave, Chicago, IL",nan,BADSTREET,,,---
55,"W Wabansia Ave and N Tripp Ave, Chicago, IL",nan,BADSTREET,,,---
56,"1804 S Jefferson St, Chicago, IL","1804 S JEFFERSON ST, CHICAGO, IL",nan,41.857448201996355,-87.64200482575937,41.857448201996355;-87.64200482575937
57,"1975 N Maud Ave, Chicago, IL","1975 N MAUD AVE, CHICAGO, IL",nan,41.91761248815833,-87.65710307678596,41.91761248815833;-87.65710307678596
58,"858 W Diversey Parkway, Chicago, IL","858 W DIVERSEY PKWY, CHICAGO, IL",nan,41.93278974678679,-87.65138079986,41.93278974678679;-87.65138079986
59,"1649-1657 N Pulaski Ave, Chicago, IL","1649-1657 N PULASKI RD, CHICAGO, IL",STREET_TYPE CORRECTION -transid is calculated using low address only,41.911336003995146,-87.72623082033397,41.911336003995146;-87.72623082033397
60,"7351 S Stony Island Ave, Chicago, IL","7351 S STONY ISLAND AVE, CHICAGO, IL",nan,41.760875587474516,-87.58563944491966,41.760875587474516;-87.58563944491966
61,"3755 N Janssen St, Chicago, IL","3755 N JANSSEN AVE, CHICAGO, IL",STREET_TYPE CORRECTION,41.95049068868359,-87.66517367312201,41.95049068868359;-87.66517367312201
62,"15 S Kilpatrick St, Chicago, IL","15 S KILPATRICK AVE, CHICAGO, IL",STREET_TYPE CORRECTION,41.880004231840175,-87.74266340418703,41.880004231840175;-87.74266340418703
63,"2753-2759 N Maplewood Ave, Chicago, IL","2753-2759 N MAPLEWOOD AVE, CHICAGO, IL", -transid is calculated using low address only,41.9319190681823,-87.6914117561963,41.9319190681823;-87.6914117561963
64,"1324 W Ohio St, Chicago, IL","1324 W OHIO ST, CHICAGO, IL",nan,41.892620068130064,-87.66058684328549,41.892620068130064;-87.66058684328549
65,"4645 S Dr Martin Luther King Jr Dr, Chicago, IL","4645 S DR MARTIN LUTHER KING JR DR, CHICAGO, IL",nan,41.80990633607934,-87.61645698884726,41.80990633607934;-87.61645698884726
66,"2451 W Cortland St, Chicago, IL","2451 W CORTLAND ST, CHICAGO, IL",nan,41.915632876609855,-87.68938027266717,41.915632876609855;-87.68938027266717
67,"2321 W Howard Ave, Chicago, IL","2321 W HOWARD ST, CHICAGO, IL",STREET_TYPE CORRECTION,42.019413270594214,-87.68862818775574,42.019413270594214;-87.68862818775574
68,"533 N St Clair St, Chicago, IL","533 N ST CLAIR ST, CHICAGO, IL",nan,41.89187527032078,-87.62252013221924,41.89187527032078;-87.62252013221924
69,"901 W Huron St, Chicago, IL","901 W HURON ST, CHICAGO, IL",nan,41.89494360558641,-87.65017468514628,41.89494360558641;-87.65017468514628
70,"550 W Webster St, Chicago, IL","550 W WEBSTER AVE, CHICAGO, IL",STREET_TYPE CORRECTION,41.922003994475794,-87.64336847300446,41.922003994475794;-87.64336847300446
71,"1951 N Westen Ave, Chicago, IL",nan,BADADDRESSNUM,,,---
72,"901 S Austin Ave, Chicago, IL","901 S AUSTIN BLVD, CHICAGO, IL",COMMON STREET ALIAS,41.87034652436215,-87.774128780491,41.87034652436215;-87.774128780491
73,"1226 W Altgeld Ave, Chicago, IL","1226 W ALTGELD ST, CHICAGO, IL",STREET_TYPE CORRECTION,41.92720062735188,-87.659587297221,41.92720062735188;-87.659587297221
74,"1801-1819 W Argyle Ave, Chicago, IL","1801-1819 W ARGYLE ST, CHICAGO, IL",STREET_TYPE CORRECTION -transid is calculated using low address only,41.97235677005528,-87.6749222533142,41.97235677005528;-87.6749222533142
75,"1513-1517 W Diversey Pkwy, Chicago, IL","1513-1517 W DIVERSEY PKWY, CHICAGO, IL", -transid is calculated using low address only,41.93232134365878,-87.66654252092327,41.93232134365878;-87.66654252092327
76,"2731 N Wilton Ave, Chicago, IL","2731 N WILTON AVE, CHICAGO, IL",nan,41.931782041559956,-87.65246435791526,41.931782041559956;-87.65246435791526
77,"4416 N Winchester Ave, Chicago, IL","4416 N WINCHESTER AVE, CHICAGO, IL",nan,41.962014129845244,-87.67765106917173,41.962014129845244;-87.67765106917173
78,"1906 N Halsted St, Chicago, IL","1906 N HALSTED ST, CHICAGO, IL",nan,41.91627854920954,-87.6485881172169,41.91627854920954;-87.6485881172169
79,"7900 S Western Ave, Chicago, IL","7900 S WESTERN AVE, CHICAGO, IL",nan,41.750054933649984,-87.68299220290213,41.750054933649984;-87.68299220290213
80,"6202-6206 W Norwood Ave, Chicago, IL","6202-6206 W NORWOOD ST, CHICAGO, IL",STREET_TYPE CORRECTION -transid is calculated using low address only,41.99113598645438,-87.78291643397665,41.99113598645438;-87.78291643397665
81,"422-428 N Whipple Ave, Chicago, IL","426-428 N WHIPPLE ST, CHICAGO, IL",STREET_TYPE CORRECTION -transid is calculated using low address only,41.88918367053406,-87.70286415600651,41.88918367053406;-87.70286415600651
82,"N Webster Ave and N Clark St, Chicago, IL",nan,BADSTREET,,,---
83,"6104 S Kedzie Ave, Chicago, IL","6104 S KEDZIE AVE, CHICAGO, IL",nan,41.7824403566705,-87.70338220407636,41.7824403566705;-87.70338220407636
84,"1244 W George Ave, Chicago, IL","1244 W GEORGE ST, CHICAGO, IL",STREET_TYPE CORRECTION,41.93445724845541,-87.66055386157706,41.93445724845541;-87.66055386157706
85,"N Kimball Ave and N Miwaukee Ave, Chicago, IL",nan,BADSTREET,,,---
86,"8908 S Lafayette Ave, Chicago, IL","8908 S LAFAYETTE AVE, CHICAGO, IL",nan,41.73236390070466,-87.62547931863702,41.73236390070466;-87.62547931863702
87,"W Albion Ave and N Kedzie Ave, Chicago, IL",nan,BADSTREET,,,---
88,"2239-2241 W Shakespeare Ave, Chicago, IL","2239-2241 W SHAKESPEARE AVE, CHICAGO, IL", -transid is calculated using low address only,41.920563139590136,-87.68417478090252,41.920563139590136;-87.68417478090252
89,"1819-1825 W Newport St, Chicago, IL","1819-1825 W NEWPORT AVE, CHICAGO, IL",STREET_TYPE CORRECTION -transid is calculated using low address only,41.94406143097434,-87.67470356794354,41.94406143097434;-87.67470356794354
90,"2207 W Belmont Ave, Chicago, IL","2207 W BELMONT AVE, CHICAGO, IL",nan,41.93939898958009,-87.6835452760475,41.93939898958009;-87.6835452760475
91,"1320 N Leavitt Ave, Chicago, IL","1320 N LEAVITT ST, CHICAGO, IL",STREET_TYPE CORRECTION,41.9055392359966,-87.68235870538129,41.9055392359966;-87.68235870538129
92,"1424 W Walton St, Chicago, IL","1424 W WALTON ST, CHICAGO, IL",nan,41.898974092577944,-87.66348299625227,41.898974092577944;-87.66348299625227
93,"2742 S Millard Ave, Chicago, IL","2742 S MILLARD AVE, CHICAGO, IL",nan,41.84124667511922,-87.71607302896865,41.84124667511922;-87.71607302896865
94,"W Webster Ave and N Dayton St, Chicago, IL",nan,BADSTREET,,,---
95,"1331 W Albion Ave, Chicago, IL","1331 W ALBION AVE, CHICAGO, IL",nan,42.002320855678654,-87.66482388436243,42.002320855678654;-87.66482388436243
96,"W Addison St and N Rockwell St, Chicago, IL",nan,BADSTREET,,,---
97,"2417-2433 N Clark Ave, Chicago, IL","2417-2433 N CLARK ST, CHICAGO, IL",STREET_TYPE CORRECTION -transid is calculated using low address only,41.926107767881206,-87.64064405129987,41.926107767881206;-87.64064405129987
98,"630 N McClurg St, Chicago, IL","630 N MCCLURG CT, CHICAGO, IL",STREET_TYPE CORRECTION,41.89355723291622,-87.6178875092094,41.89355723291622;-87.6178875092094
99,"W Webster Ave and N Seminary Ave, Chicago, IL",nan,BADSTREET,,,---
100,"327 N Aberdeen Ave, Chicago, IL","327 N ABERDEEN ST, CHICAGO, IL",STREET_TYPE CORRECTION,41.88761647559147,-87.6543832072188,41.88761647559147;-87.6543832072188
101,"6733-6735 S Chicago Ave, Chicago, IL",nan,BADADDRESSNUM,,,---
102,"1442 N Mohawk Ave, Chicago, IL","1442 N MOHAWK ST, CHICAGO, IL",STREET_TYPE CORRECTION,41.90884193188663,-87.64230262417063,41.90884193188663;-87.64230262417063
103,"2537 W Moffat Ave, Chicago, IL","2537 W MOFFAT ST, CHICAGO, IL",STREET_TYPE CORRECTION,41.914710620396264,-87.69126654171602,41.914710620396264;-87.69126654171602
104,"407-415 S Dearborn Ave, Chicago, IL","407-415 S DEARBORN ST, CHICAGO, IL",STREET_TYPE CORRECTION -transid is calculated using low address only,41.87669951154698,-87.62911066501952,41.87669951154698;-87.62911066501952
105,"150 N Riverside Dr, Chicago, IL","150 N RIVERSIDE PLZ, CHICAGO, IL",STREET_TYPE CORRECTION,41.88508945576888,-87.63840559417186,41.88508945576888;-87.63840559417186
106,"730 W Grand Ave, Chicago, IL","730 W GRAND AVE, CHICAGO, IL",nan,41.891297376120164,-87.64713091483144,41.891297376120164;-87.64713091483144
107,"3059 S St Louis Ave, Chicago, IL","3059 S ST LOUIS AVE, CHICAGO, IL",nan,41.83721858678621,-87.71201003212285,41.83721858678621;-87.71201003212285
108,"1659 W Grand Ave, Chicago, IL","1659 W GRAND AVE, CHICAGO, IL",nan,41.890834558904814,-87.66951501236623,41.890834558904814;-87.66951501236623
109,"832 W Jackson St, Chicago, IL","832 W JACKSON BLVD, CHICAGO, IL",STREET_TYPE CORRECTION,41.878038516522345,-87.64851895831593,41.878038516522345;-87.64851895831593
110,"4400-4458 N Clarendon Ave and 4401-4415 N Clarendon Ave, Chicago, IL",nan,BADSTREET,,,---
111,"3952-3956 N Asland Ave, Chicago, IL",nan,BADSTREET,,,---
112,"1152 W Eddy St, Chicago, IL","1152 W EDDY ST, CHICAGO, IL",nan,41.94635499260236,-87.65790766946932,41.94635499260236;-87.65790766946932
113,"1300 N Dearborn Pkwy, Chicago, IL","1300 N DEARBORN ST, CHICAGO, IL",COMMON STREET ALIAS,41.905898874391504,-87.63019276315075,41.905898874391504;-87.63019276315075
114,"3721-3757 N Halsted St, Chicago, IL","3721-3757 N HALSTED ST, CHICAGO, IL", -transid is calculated using low address only,41.949730726526816,-87.64941573428582,41.949730726526816;-87.64941573428582
115,"2034-2040 W Lawrence Ave, Chicago, IL","2034-2040 W LAWRENCE AVE, CHICAGO, IL", -transid is calculated using low address only,41.968847047481525,-87.68054852375663,41.968847047481525;-87.68054852375663
116,"1907-1909 N Bissell Ave, Chicago, IL","1907-1909 N BISSELL ST, CHICAGO, IL",STREET_TYPE CORRECTION -transid is calculated using low address only,41.91625152579829,-87.65194138699374,41.91625152579829;-87.65194138699374
117,"1845 N St Louis Ave, Chicago, IL","1845 N ST LOUIS AVE, CHICAGO, IL",nan,41.91495421930178,-87.71331442604215,41.91495421930178;-87.71331442604215
118,"1341-1345 W Ancona Ave, Chicago, IL","1341-1345 W ANCONA ST, CHICAGO, IL",STREET_TYPE CORRECTION -transid is calculated using low address only,41.893792238734385,-87.6612019071372,41.893792238734385;-87.6612019071372
119,"948-954 W Fulton Market St, Chicago, IL","948-954 W FULTON MARKET , CHICAGO, IL",STREET_TYPE CORRECTION -transid is calculated using low address only,41.886854792080925,-87.6517677496529,41.886854792080925;-87.6517677496529
120,"8000 S Dr Martin L King Jr Dr, Chicago, IL","8000 S DR MARTIN LUTHER KING JR DR, CHICAGO, IL",MINOR CORRECTION,41.74919731465365,-87.61506453142316,41.74919731465365;-87.61506453142316
121,"8001 S Dr Martin L King Jr Dr, Chicago, IL","8001 S DR MARTIN LUTHER KING JR DR, CHICAGO, IL",MINOR CORRECTION,41.74920154608287,-87.61477142686657,41.74920154608287;-87.61477142686657
122,"37 S Sangamon Ave, Chicago, IL","37 S SANGAMON ST, CHICAGO, IL",STREET_TYPE CORRECTION,41.88055796433985,-87.65068001187853,41.88055796433985;-87.65068001187853
123,"1055 W Fulton Market St, Chicago, IL","1055 W FULTON MARKET , CHICAGO, IL",STREET_TYPE CORRECTION,41.886595609477205,-87.6543499372662,41.886595609477205;-87.6543499372662
124,"W Patterson Ave and N Cicero Ave, Chicago, IL",nan,BADSTREET,,,---
125,"1906 N Halsted St, Chicago, IL","1906 N HALSTED ST, CHICAGO, IL",nan,41.91627854920954,-87.6485881172169,41.91627854920954;-87.6485881172169
126,"E Hubbard St and N Rush St, Chicago, IL",nan,BADSTREET,,,---
127,"1950 W Erie St, Chicago, IL","1950 W ERIE ST, CHICAGO, IL",nan,41.89328993515489,-87.67655199530485,41.89328993515489;-87.67655199530485
128,"1951 W Erie Ave, Chicago, IL","1951 W ERIE ST, CHICAGO, IL",STREET_TYPE CORRECTION,41.89307045214762,-87.67654574136168,41.89307045214762;-87.67654574136168
129,"2416-2422 W Addison Ave, Chicago, IL","2416-2422 W ADDISON ST, CHICAGO, IL",STREET_TYPE CORRECTION -transid is calculated using low address only,41.94683735883456,-87.68894122147842,41.94683735883456;-87.68894122147842
130,"1515-1517 W Haddon St, Chicago, IL","1515-1517 W HADDON AVE, CHICAGO, IL",STREET_TYPE CORRECTION -transid is calculated using low address only,41.90234745228074,-87.66601789896495,41.90234745228074;-87.66601789896495
131,"29-39 S LaSalle St, Chicago, IL","29-39 S LA SALLE ST, CHICAGO, IL",ALIAS -transid is calculated using low address only,41.88115309380635,-87.63219570286168,41.88115309380635;-87.63219570286168
132,"7155-7157 W 63rd St aka 6301-6319 S Harlem Ave, Chicago, IL","7155-7157 W 63RD ST, CHICAGO, IL",PRIMARY STREET TIE BREAKER -transid is calculated using low address only,41.77719208340324,-87.8006628940603,41.77719208340324;-87.8006628940603
133,"11231-11235 W Western Ave, Chicago, IL",nan, -transid is calculated using low address only,,,---
134,"1640 W Erie St, Chicago, IL","1640 W ERIE ST, CHICAGO, IL",nan,41.89342611660839,-87.66884053972831,41.89342611660839;-87.66884053972831
135,"5825 N Tripp St, Chicago, IL","5825 N TRIPP AVE, CHICAGO, IL",STREET_TYPE CORRECTION,41.98641957969588,-87.7340373818792,41.98641957969588;-87.7340373818792
136,"934 N Larrabee Ave, Chicago, IL","934 N LARRABEE ST, CHICAGO, IL",STREET_TYPE CORRECTION,41.89956921152949,-87.64320578556972,41.89956921152949;-87.64320578556972
137,"43 N Homan Blvd, Chicago, IL","43 N HOMAN BLVD, CHICAGO, IL",nan,41.882211292040566,-87.7108986080365,41.882211292040566;-87.7108986080365
138,"4952-4958 N St Louis Ave, Chicago, IL","4952-4958 N ST LOUIS AVE, CHICAGO, IL", -transid is calculated using low address only,41.97157907098583,-87.71603798563375,41.97157907098583;-87.71603798563375
139,"1534 W Cortez St, Chicago, IL","1534 W CORTEZ ST, CHICAGO, IL",nan,41.90074409411554,-87.66634587833964,41.90074409411554;-87.66634587833964
140,"1906 N Halsted St, Chicago, IL","1906 N HALSTED ST, CHICAGO, IL",nan,41.91627854920954,-87.6485881172169,41.91627854920954;-87.6485881172169
141,"731 W Melrose Ave, Chicago, IL","731 W MELROSE ST, CHICAGO, IL",STREET_TYPE CORRECTION,41.94097185434069,-87.64789264016144,41.94097185434069;-87.64789264016144
142,"5401 S Western Blvd, Chicago, IL","5401 S WESTERN BLVD, CHICAGO, IL",nan,41.79555234537843,-87.68337228559177,41.79555234537843;-87.68337228559177
143,"3525 S Martin L King Jr Dr, Chicago, IL",nan,BADSTREET,,,---
144,"520 N Orleans Ave, Chicago, IL","520 N ORLEANS ST, CHICAGO, IL",STREET_TYPE CORRECTION,41.89150383301207,-87.63717644121202,41.89150383301207;-87.63717644121202
145,"900 N Dewitt Pl, Chicago, IL","900 N DEWITT PL, CHICAGO, IL",nan,41.89930609747106,-87.62036287558747,41.89930609747106;-87.62036287558747
146,"1014 N Larrabee St, Chicago, IL","1014 N LARRABEE ST, CHICAGO, IL",nan,41.900912800472945,-87.64325812492238,41.900912800472945;-87.64325812492238
147,"1018-1020 N Larrabee St, Chicago, IL","1018-1020 N LARRABEE ST, CHICAGO, IL", -transid is calculated using low address only,41.901041185523994,-87.6432633597721,41.901041185523994;-87.6432633597721
148,"1237-1253 N Milwaukee Ave, Chicago, IL","1237-1253 N MILWAUKEE AVE, CHICAGO, IL", -transid is calculated using low address only,41.90425996474066,-87.6676647561347,41.90425996474066;-87.6676647561347
149,"2525 S Hillock St, Chicago, IL","2525 S HILLOCK AVE, CHICAGO, IL",STREET_TYPE CORRECTION,41.84633132996607,-87.6539870667816,41.84633132996607;-87.6539870667816
150,"2517-2521 S Hillock St, Chicago, IL","2517-2521 S HILLOCK AVE, CHICAGO, IL",STREET_TYPE CORRECTION -transid is calculated using low address only,41.84649234599994,-87.65365089819262,41.84649234599994;-87.65365089819262
151,"529 N Hartland Ct, Chicago, IL","529 N HARTLAND CT, CHICAGO, IL",nan,41.891820036706356,-87.67108944795717,41.891820036706356;-87.67108944795717
152,"1659 W Grand Ave, Chicago, IL","1659 W GRAND AVE, CHICAGO, IL",nan,41.890834558904814,-87.66951501236623,41.890834558904814;-87.66951501236623
153,"1061 W VanBuren St, Chicago, IL","1061 W VAN BUREN ST, CHICAGO, IL",ALIAS,41.87645614541188,-87.65429579519606,41.87645614541188;-87.65429579519606
154,"3857 S Dr Martin L King Dr, Chicago, IL",nan,BADSTREET,,,---
155,"W Henderson Ave and N Kildare Ave, Chicago, IL",nan,BADSTREET,,,---
156,"3828 N Racine Ave, Chicago, IL","3828 N RACINE AVE, CHICAGO, IL",nan,41.95191205435755,-87.65943803088769,41.95191205435755;-87.65943803088769
157,"3538 N Albany Ave, Chicago, IL","3538 N ALBANY AVE, CHICAGO, IL",nan,41.94592535537084,-87.70549351608956,41.94592535537084;-87.70549351608956
158,"4330 S Langley Ave, Chicago, IL","4330 S LANGLEY AVE, CHICAGO, IL",nan,41.81583335327532,-87.60930905545393,41.81583335327532;-87.60930905545393
159,"2133 N Campell Ave, Chicago, IL",nan,BADSTREET,,,---
160,"602 N May St, Chicago, IL","602 N MAY ST, CHICAGO, IL",nan,41.89231016798648,-87.65596789664838,41.89231016798648;-87.65596789664838
161,"2231 N Central Ave, Chicago, IL","2231 N CENTRAL AVE, CHICAGO, IL",nan,41.92131716931634,-87.76574379790944,41.92131716931634;-87.76574379790944
162,"1740 W Erie St, Chicago, IL","1740 W ERIE ST, CHICAGO, IL",nan,41.89338677519291,-87.67128494425711,41.89338677519291;-87.67128494425711
163,"8050 S Dr Martin L King Dr, Chicago, IL",nan,BADSTREET,,,---
164,"1342 W Henderson Ave, Chicago, IL","1342 W HENDERSON ST, CHICAGO, IL",STREET_TYPE CORRECTION,41.94262268873954,-87.66317238596186,41.94262268873954;-87.66317238596186
165,"3911 N Leavitt Ave, Chicago, IL","3911 N LEAVITT ST, CHICAGO, IL",STREET_TYPE CORRECTION,41.95264339254052,-87.68342105426794,41.95264339254052;-87.68342105426794
166,"4416 N Winchester Ave, Chicago, IL","4416 N WINCHESTER AVE, CHICAGO, IL",nan,41.962014129845244,-87.67765106917173,41.962014129845244;-87.67765106917173
167,"6010-6018 S Kedzie Ave, Chicago, IL","6010-6018 S KEDZIE AVE, CHICAGO, IL", -transid is calculated using low address only,41.784050919738135,-87.70342795536284,41.784050919738135;-87.70342795536284
168,"1424 W Diversey Pkwy, Chicago, IL","1424 W DIVERSEY PKWY, CHICAGO, IL",nan,41.932572827559675,-87.6646312149481,41.932572827559675;-87.6646312149481
169,"1652 N St Louis Ave, Chicago, IL","1652 N ST LOUIS AVE, CHICAGO, IL",nan,41.911591914824015,-87.71350433681478,41.911591914824015;-87.71350433681478
170,"351 W Huron St, Chicago, IL","351 W HURON ST, CHICAGO, IL",nan,41.89463674584331,-87.63761849646316,41.89463674584331;-87.63761849646316
171,"5401 S Western Blvd, Chicago, IL","5401 S WESTERN BLVD, CHICAGO, IL",nan,41.79555234537843,-87.68337228559177,41.79555234537843;-87.68337228559177
172,"W Forest Preserve Dr and N Oak Park Ave, Chicago, IL",nan,BADSTREET,,,---
173,"W Forest Preserve Dr and N Oak Park Ave, Chicago, IL",nan,BADSTREET,,,---
174,"1243 W Henderson Ave, Chicago, IL","1243 W HENDERSON ST, CHICAGO, IL",STREET_TYPE CORRECTION,41.94243858588899,-87.6609141460705,41.94243858588899;-87.6609141460705
175,"1615-1627 N Burling Ave, Chicago, IL","1615-1627 N BURLING ST, CHICAGO, IL",STREET_TYPE CORRECTION -transid is calculated using low address only,41.911571501262884,-87.64693260655199,41.911571501262884;-87.64693260655199
176,"1858 N Spaulding Ave, Chicago, IL","1858 N SPAULDING AVE, CHICAGO, IL",nan,41.915449339104654,-87.71038198186343,41.915449339104654;-87.71038198186343
177,"1858 N Spaulding Ave, Chicago, IL","1858 N SPAULDING AVE, CHICAGO, IL",nan,41.915449339104654,-87.71038198186343,41.915449339104654;-87.71038198186343
178,"1929 N Drake Ave, Chicago, IL","1929 N DRAKE AVE, CHICAGO, IL",nan,41.916328420071245,-87.71497751292361,41.916328420071245;-87.71497751292361
179,"1929 N Drake Ave, Chicago, IL","1929 N DRAKE AVE, CHICAGO, IL",nan,41.916328420071245,-87.71497751292361,41.916328420071245;-87.71497751292361
180,"712-716 W Diversey Pkwy, Chicago, IL","712-716 W DIVERSEY PKWY, CHICAGO, IL", -transid is calculated using low address only,41.93286518580667,-87.64717123094941,41.93286518580667;-87.64717123094941
181,"2047 W Cuyler St, Chicago, IL","2047 W CUYLER AVE, CHICAGO, IL",STREET_TYPE CORRECTION,41.954960198469394,-87.68078309213382,41.954960198469394;-87.68078309213382
182,"2901 W Belden St, Chicago, IL","2901 W BELDEN AVE, CHICAGO, IL",STREET_TYPE CORRECTION,41.92316384958663,-87.70017632063833,41.92316384958663;-87.70017632063833
183,"1012 N Larrabee St, Chicago, IL","1012 N LARRABEE ST, CHICAGO, IL",nan,41.900848587506395,-87.64325553650413,41.900848587506395;-87.64325553650413
184,"4223 S Wabash Ave, Chicago, IL","4223 S WABASH AVE, CHICAGO, IL",nan,41.81761728045085,-87.62453586982848,41.81761728045085;-87.62453586982848
185,"2424 N Janssen Ave, Chicago, IL","2424 N JANSSEN AVE, CHICAGO, IL",nan,41.92596372049605,-87.66474931260437,41.92596372049605;-87.66474931260437
186,"3525 S Dr Martin L King Jr Dr, Chicago, IL","3525 S DR MARTIN LUTHER KING JR DR, CHICAGO, IL",MINOR CORRECTION,41.830277535126726,-87.61687869746224,41.830277535126726;-87.61687869746224
187,"2221 N Leavitt Ave, Chicago, IL","2221 N LEAVITT ST, CHICAGO, IL",STREET_TYPE CORRECTION,41.92205670668539,-87.68252169488048,41.92205670668539;-87.68252169488048
188,"2143 N Western Ave, Chicago, IL","2143 N WESTERN AVE, CHICAGO, IL",nan,41.92110145866562,-87.68737714806196,41.92110145866562;-87.68737714806196
189,"529 N Claremont Ave, Chicago, IL","529 N CLAREMONT AVE, CHICAGO, IL",nan,41.89158404253134,-87.68535143043941,41.89158404253134;-87.68535143043941
190,"8053 S Dr Martin L King Jr Dr, Chicago, IL","8053 S DR MARTIN LUTHER KING JR DR, CHICAGO, IL",MINOR CORRECTION,41.74772692104569,-87.61473162806021,41.74772692104569;-87.61473162806021
191,"1754 N Whipple Ave, Chicago, IL","1754 N WHIPPLE ST, CHICAGO, IL",STREET_TYPE CORRECTION,41.913549186864856,-87.70362629697638,41.913549186864856;-87.70362629697638
192,"3037 N Sheffield Ave, Chicago, IL","3037 N SHEFFIELD AVE, CHICAGO, IL",nan,41.93740227446218,-87.65387455650291,41.93740227446218;-87.65387455650291
193,"1154 W Ohio St, Chicago, IL","1154 W OHIO ST, CHICAGO, IL",nan,41.892292034436714,-87.65682808293754,41.892292034436714;-87.65682808293754
194,"462 N May St, Chicago, IL","462 N MAY ST, CHICAGO, IL",nan,41.89077878231693,-87.65592993937928,41.89077878231693;-87.65592993937928
195,"4910-4960 S Kedzie Ave, Chicago, IL","4910-4960 S KEDZIE AVE, CHICAGO, IL", -transid is calculated using low address only,41.80406694844944,-87.70400529894414,41.80406694844944;-87.70400529894414
196,"2440 W Division St, Chicago, IL","2440 W DIVISION ST, CHICAGO, IL",nan,41.90311067100929,-87.6885768059171,41.90311067100929;-87.6885768059171
197,"506-514 W Diversey Ave, Chicago, IL","506-514 W DIVERSEY PKWY, CHICAGO, IL",COMMON STREET ALIAS -transid is calculated using low address only,41.93297221225597,-87.64171516501513,41.93297221225597;-87.64171516501513
198,"3224 N Elston Ave, Chicago, IL","3224 N ELSTON AVE, CHICAGO, IL",nan,41.93988806326987,-87.69925915490143,41.93988806326987;-87.69925915490143
199,"600-602 N St Louis Ave, Chicago, IL","600-602 N ST LOUIS AVE, CHICAGO, IL", -transid is calculated using low address only,41.891909672814414,-87.71391581717316,41.891909672814414;-87.71391581717316
200,"6110-6136 S LaSalle St, Chicago, IL","6110-6136 S LA SALLE ST, CHICAGO, IL",ALIAS -transid is calculated using low address only,41.78276381248173,-87.6291052996016,41.78276381248173;-87.6291052996016
201,"3211 W Carroll Ave, Chicago, IL","3211 W CARROLL AVE, CHICAGO, IL",nan,41.887405736417996,-87.70679847872366,41.887405736417996;-87.70679847872366
202,"1551 W North Ave, Chicago, IL","1551 W NORTH AVE, CHICAGO, IL",nan,41.91052635223628,-87.66729841079488,41.91052635223628;-87.66729841079488
203,"1745 W LeMoyne Ave, Chicago, IL","1745 W LE MOYNE ST, CHICAGO, IL",ALIAS STREET_TYPE CORRECTION,41.908948595802435,-87.67187721649057,41.908948595802435;-87.67187721649057
204,"2106-2108 N Menard Ave, Chicago, IL","2106-2108 N MENARD AVE, CHICAGO, IL", -transid is calculated using low address only,41.91823506184365,-87.77079520647142,41.91823506184365;-87.77079520647142
205,"4300 S Drexel Blvd, Chicago, IL","4300 S DREXEL BLVD, CHICAGO, IL",nan,41.8167447651024,-87.6046799953305,41.8167447651024;-87.6046799953305
206,"351 W Huron St, Chicago, IL","351 W HURON ST, CHICAGO, IL",nan,41.89463674584331,-87.63761849646316,41.89463674584331;-87.63761849646316
207,"W Dickens Ave and N Clark St, Chicago, IL",nan,BADSTREET,,,---
208,"1217 N Bosworth Ave, Chicago, IL","1217 N BOSWORTH AVE, CHICAGO, IL",nan,41.903898125801966,-87.6660339615258,41.903898125801966;-87.6660339615258
209,"2817 N Oakley Ave, Chicago, IL","2817 N OAKLEY AVE, CHICAGO, IL",nan,41.93266407892456,-87.68532786988986,41.93266407892456;-87.68532786988986
210,"5833 W Irving Park Rd, Chicago, IL","5833 W IRVING PARK RD, CHICAGO, IL",nan,41.95299069975936,-87.773248741095,41.95299069975936;-87.773248741095
211,"1516-1518 N Rockwell Ave, Chicago, IL","1516-1518 N ROCKWELL ST, CHICAGO, IL",ALIAS -transid is calculated using low address only,41.90898417233684,-87.6922346409619,41.90898417233684;-87.6922346409619
212,"1455 N Oakely Blvd, Chicago, IL","1455 N OAKLEY BLVD, CHICAGO, IL",MINOR CORRECTION,41.90832489895366,-87.68458208279411,41.90832489895366;-87.68458208279411
213,"1920 N Milwuakee Ave, Chicago, IL","1920 N MILWAUKEE AVE, CHICAGO, IL",MINOR CORRECTION,41.91629912474653,-87.68682685996099,41.91629912474653;-87.68682685996099
214,"768 N Aberdeen Ave, Chicago, IL","766 N ABERDEEN ST, CHICAGO, IL",STREET_TYPE CORRECTION,41.89581501562799,-87.65598930123734,41.89581501562799;-87.65598930123734
215,"800 S Michgian Ave, Chicago, IL",nan,BADSTREET,,,---
216,"1842 N Kedzie Ave, Chicago, IL","1842 N KEDZIE AVE, CHICAGO, IL",nan,41.91506635148796,-87.70704788821604,41.91506635148796;-87.70704788821604
217,"2915-2923 W Armitage Ave aka 1945-1951 N Richmond St, Chicago, IL",nan,BADSTREET,,,---
218,"6505 S Normal Blvd, Chicago, IL","6505 S NORMAL BLVD, CHICAGO, IL",nan,41.77604686240868,-87.63675960182108,41.77604686240868;-87.63675960182108
219,"2817 N Oakley Ave, Chicago, IL","2817 N OAKLEY AVE, CHICAGO, IL",nan,41.93266407892456,-87.68532786988986,41.93266407892456;-87.68532786988986
220,"634 N Rockwell Ave, Chicago, IL","634 N ROCKWELL ST, CHICAGO, IL",ALIAS,41.89307138449444,-87.69183774819504,41.89307138449444;-87.69183774819504
221,"1445 W Roscoe Ave, Chicago, IL","1445 W ROSCOE ST, CHICAGO, IL",STREET_TYPE CORRECTION,41.94327888863139,-87.6657704082449,41.94327888863139;-87.6657704082449
222,"2039 S Prairie Ave, Chicago, IL","2039 S PRAIRIE AVE, CHICAGO, IL",nan,41.85438948049304,-87.62054828267293,41.85438948049304;-87.62054828267293
223,"6805 N Greenview Ave, Chicago, IL","6805 N GREENVIEW AVE, CHICAGO, IL",nan,42.00560380145648,-87.6676361762988,42.00560380145648;-87.6676361762988
224,"5436-5438 S Harper St, Chicago, IL","5436-5438 S HARPER AVE, CHICAGO, IL",STREET_TYPE CORRECTION -transid is calculated using low address only,41.79696131231898,-87.58918385375476,41.79696131231898;-87.58918385375476
225,"2430 W Cortez St, Chicago, IL","2430 W CORTEZ ST, CHICAGO, IL",nan,41.90038935153302,-87.68823038901253,41.90038935153302;-87.68823038901253
226,"3401-3453 S Dr Martin L King Dr, Chicago, IL",nan,BADSTREET,,,---
227,"1458 W Ohio St, Chicago, IL","1458 W OHIO ST, CHICAGO, IL",nan,41.89257731535429,-87.66458339090134,41.89257731535429;-87.66458339090134
228,"6413 N Glenwood Ave, Chicago, IL","6413 N GLENWOOD AVE, CHICAGO, IL",nan,41.99854895797884,-87.66537264329706,41.99854895797884;-87.66537264329706
229,"1870 N Dayton Ave, Chicago, IL","1870 N DAYTON ST, CHICAGO, IL",STREET_TYPE CORRECTION,41.91574313474448,-87.6497908482736,41.91574313474448;-87.6497908482736
230,"1906 S Loomis St, Chicago, IL","1906 S LOOMIS ST, CHICAGO, IL",nan,41.85582514183068,-87.66140773996202,41.85582514183068;-87.66140773996202
231,"1551 W North Ave, Chicago, IL","1551 W NORTH AVE, CHICAGO, IL",nan,41.91052635223628,-87.66729841079488,41.91052635223628;-87.66729841079488
232,"1410 W Huron St, Chicago, IL","1410 W HURON ST, CHICAGO, IL",nan,41.89443074264349,-87.66284583071372,41.89443074264349;-87.66284583071372
233,"6731 S St Lawrence Ave, Chicago, IL","6731 S ST LAWRENCE AVE, CHICAGO, IL",nan,41.77212244127929,-87.6104414694932,41.77212244127929;-87.6104414694932
234,"100-110 W Huron St amd 700-710 N Clark St, Chicago, IL",nan,BADSTREET,,,---
235,"1911 W Cullerton Ave, Chicago, IL","1911 W CULLERTON ST, CHICAGO, IL",STREET_TYPE CORRECTION,41.85484346866384,-87.67397084810598,41.85484346866384;-87.67397084810598
236,"4710-4714 S Dr Martin L King Jr Dr, Chicago, IL","4710-4714 S DR MARTIN LUTHER KING JR DR, CHICAGO, IL",MINOR CORRECTION -transid is calculated using low address only,41.80900816700374,-87.61672529316279,41.80900816700374;-87.61672529316279
237,"2120 N Natchez Ave, Chicago, IL","2120 N NATCHEZ AVE, CHICAGO, IL",nan,41.91885446556463,-87.78789231814339,41.91885446556463;-87.78789231814339
238,"2437 W Haddon Ave, Chicago, IL","2437 W HADDON AVE, CHICAGO, IL",nan,41.901962317966344,-87.68850077925407,41.901962317966344;-87.68850077925407
239,"1902 W Cullerton Ave, Chicago, IL","1902 W CULLERTON ST, CHICAGO, IL",STREET_TYPE CORRECTION,41.85506664396277,-87.6736711678853,41.85506664396277;-87.6736711678853
240,"1706 S Clinton St, Chicago, IL","1706 S CLINTON ST, CHICAGO, IL",nan,41.858497265975046,-87.64104714247947,41.858497265975046;-87.64104714247947
241,"1418 W Fillmore Ave, Chicago, IL","1418 W FILLMORE ST, CHICAGO, IL",STREET_TYPE CORRECTION,41.868644314557265,-87.66242276795981,41.868644314557265;-87.66242276795981
242,"3025-3027 S Lloyd St, Chicago, IL","3025-3027 S LLOYD AVE, CHICAGO, IL",STREET_TYPE CORRECTION -transid is calculated using low address only,41.83892215651225,-87.65872601076944,41.83892215651225;-87.65872601076944
243,"3110-3250 S St Louis Ave, Chicago, IL","3110-3250 S ST LOUIS AVE, CHICAGO, IL", -transid is calculated using low address only,41.83683242509019,-87.7122388437702,41.83683242509019;-87.7122388437702
244,"1542 W Augusta Blvd, Chicago, IL","1542 W AUGUSTA BLVD, CHICAGO, IL",nan,41.89983180009879,-87.66660813848497,41.89983180009879;-87.66660813848497
245,"1232 N Noble St, Chicago, IL","1232 N NOBLE ST, CHICAGO, IL",nan,41.90446844511677,-87.66279152145364,41.90446844511677;-87.66279152145364
246,"1430 W Fillmore Ave, Chicago, IL","1430 W FILLMORE ST, CHICAGO, IL",STREET_TYPE CORRECTION,41.868636903681754,-87.66287630744215,41.868636903681754;-87.66287630744215
247,"1244 W Race St, Chicago, IL","1244 W RACE AVE, CHICAGO, IL",STREET_TYPE CORRECTION,41.8919124131639,-87.65924974982957,41.8919124131639;-87.65924974982957
248,"1700 S Clinton St, Chicago, IL","1700 S CLINTON ST, CHICAGO, IL",nan,41.85865967631545,-87.64105275338093,41.85865967631545;-87.64105275338093
249,"1811 N Callifornia Ave, Chicago, IL","1811 N CALIFORNIA AVE, CHICAGO, IL",MINOR CORRECTION,41.91430374317569,-87.69695793877042,41.91430374317569;-87.69695793877042
250,"1300 N Dearborn Pkwy, Chicago, IL","1300 N DEARBORN ST, CHICAGO, IL",COMMON STREET ALIAS,41.905898874391504,-87.63019276315075,41.905898874391504;-87.63019276315075
251,"7636-7638 N Sherdian Rd, Chicago, IL","7636-7638 N SHERIDAN RD, CHICAGO, IL",MINOR CORRECTION -transid is calculated using low address only,42.020289868800134,-87.66650085063819,42.020289868800134;-87.66650085063819
252,"4525 N Kenmore Ave, Chicago, IL","4525 N KENMORE AVE, CHICAGO, IL",nan,41.964346075873415,-87.65605252460469,41.964346075873415;-87.65605252460469
253,"3639 W Cortland Ave, Chicago, IL","3639 W CORTLAND ST, CHICAGO, IL",STREET_TYPE CORRECTION,41.915331474512605,-87.71831267171885,41.915331474512605;-87.71831267171885
254,"16-1 at 2435-2437 W 65th St, Chicago, IL",nan,BADSTREET,,,---
255,"3425 W Belmont Ave, Chicago, IL","3425 W BELMONT AVE, CHICAGO, IL",nan,41.93915081822502,-87.7135625164207,41.93915081822502;-87.7135625164207
256,"1028 W Cullerton St, Chicago, IL","1028 W CULLERTON ST, CHICAGO, IL",nan,41.85536274029579,-87.65268370716761,41.85536274029579;-87.65268370716761
257,"3352 W Pierce St, Chicago, IL","3352 W PIERCE AVE, CHICAGO, IL",STREET_TYPE CORRECTION,41.90924659965429,-87.7115357062245,41.90924659965429;-87.7115357062245
258,"2722 S Dr Martin L King Dr, Chicago, IL",nan,BADSTREET,,,---
259,"670-678 N LaSalle St, Chicago, IL","670-678 N LA SALLE DR, CHICAGO, IL",ALIAS STREET_TYPE CORRECTION BY ADDRESS RANGE -transid is calculated using low address only,41.894481929395845,-87.63281681161918,41.894481929395845;-87.63281681161918
260,"3256 N Southport Ave, Chicago, IL","3256 N SOUTHPORT AVE, CHICAGO, IL",nan,41.94147594895247,-87.66401036405266,41.94147594895247;-87.66401036405266
261,"5338-5360 W Argyle Ave, Chicago, IL","5338-5360 W ARGYLE ST, CHICAGO, IL",STREET_TYPE CORRECTION -transid is calculated using low address only,41.97164551045219,-87.76176704106742,41.97164551045219;-87.76176704106742
262,"1542 W Augusta Blvd, Chicago, IL","1542 W AUGUSTA BLVD, CHICAGO, IL",nan,41.89983180009879,-87.66660813848497,41.89983180009879;-87.66660813848497
263,"2255 N Kimball Ave, Chicago, IL","2255 N KIMBALL AVE, CHICAGO, IL",nan,41.9226744413066,-87.71189857849303,41.9226744413066;-87.71189857849303
264,"7953 S Dr Martin Luther King Jr Dr, Chicago, IL","7953 S DR MARTIN LUTHER KING JR DR, CHICAGO, IL",nan,41.74955427027506,-87.61478128401741,41.74955427027506;-87.61478128401741
265,"1424 W Fillmore Ave, Chicago, IL","1424 W FILLMORE ST, CHICAGO, IL",STREET_TYPE CORRECTION,41.8686406093435,-87.66264953771115,41.8686406093435;-87.66264953771115
266,"2514 W Harrison St, Chicago, IL","2514 W HARRISON ST, CHICAGO, IL",nan,41.87396794815109,-87.68928005474626,41.87396794815109;-87.68928005474626
267,"720 N Ada St, Chicago, IL","720 N ADA ST, CHICAGO, IL",nan,41.89505376175713,-87.66152342503293,41.89505376175713;-87.66152342503293
268,"1637 N Artesian Ave, Chicago, IL","1637 N ARTESIAN AVE, CHICAGO, IL",nan,41.91141370132482,-87.6883183534917,41.91141370132482;-87.6883183534917
269,"2424 W Lyndale Ave, Chicago, IL","2424 W LYNDALE ST, CHICAGO, IL",STREET_TYPE CORRECTION,41.922572689350524,-87.68860354505364,41.922572689350524;-87.68860354505364
270,"2913 N Narragasett Ave, Chicago, IL",nan,BADSTREET,,,---
271,"1800 N Richmond Ave, Chicago, IL","1800 N RICHMOND ST, CHICAGO, IL",STREET_TYPE CORRECTION,41.91401395533311,-87.70050206678671,41.91401395533311;-87.70050206678671
272,"3053 N Rockwell Ave, Chicago, IL","3053 N ROCKWELL ST, CHICAGO, IL",ALIAS,41.937297794646014,-87.69273528339185,41.937297794646014;-87.69273528339185
273,"3017 N Rockwell Ave, Chicago, IL","3017 N ROCKWELL ST, CHICAGO, IL",ALIAS,41.93629582859201,-87.69270936530725,41.93629582859201;-87.69270936530725
274,"3856 W Diversey Pkwy, Chicago, IL","3856 W DIVERSEY AVE, CHICAGO, IL",COMMON STREET ALIAS,41.93193290854475,-87.72439953586458,41.93193290854475;-87.72439953586458
275,"4015-4025 N Narragansette Ave, Chicago, IL","4015-4025 N NARRAGANSETT AVE, CHICAGO, IL",ALIAS MINOR CORRECTION -transid is calculated using low address only,41.953445620849706,-87.78643374673246,41.953445620849706;-87.78643374673246
276,"859-871 N Orleans St, Chicago, IL","859-871 N ORLEANS ST, CHICAGO, IL", -transid is calculated using low address only,41.89820520194349,-87.63708646726337,41.89820520194349;-87.63708646726337
277,"2335 W Montrose Ave, Chicago, IL","2335 W MONTROSE AVE, CHICAGO, IL",nan,41.9612179775438,-87.68761163321348,41.9612179775438;-87.68761163321348
278,"1811 N California Ave, Chicago, IL","1811 N CALIFORNIA AVE, CHICAGO, IL",nan,41.91430374317569,-87.69695793877042,41.91430374317569;-87.69695793877042
279,"1644 N Damen Ave, Chicago, IL","1644 N DAMEN AVE, CHICAGO, IL",nan,41.911846648306714,-87.67764281908491,41.911846648306714;-87.67764281908491
280,"1914 W Crystal Ave, Chicago, IL","1914 W CRYSTAL ST, CHICAGO, IL",STREET_TYPE CORRECTION,41.90425938225385,-87.67551053617237,41.90425938225385;-87.67551053617237
281,"1811 N California Ave, Chicago, IL","1811 N CALIFORNIA AVE, CHICAGO, IL",nan,41.91430374317569,-87.69695793877042,41.91430374317569;-87.69695793877042
282,"1834 N Rockwell Ave, Chicago, IL","1834 N ROCKWELL ST, CHICAGO, IL",ALIAS,41.91497197979097,-87.69237427042486,41.91497197979097;-87.69237427042486
283,"1026 W Cullerton Ave, Chicago, IL","1026 W CULLERTON ST, CHICAGO, IL",STREET_TYPE CORRECTION,41.85536405130947,-87.65260162560132,41.85536405130947;-87.65260162560132
284,"2022-2026 W Warner St, Chicago, IL","2022-2026 W WARNER AVE, CHICAGO, IL",STREET_TYPE CORRECTION -transid is calculated using low address only,41.95699006665411,-87.679750667653,41.95699006665411;-87.679750667653
285,"4850 N St Louis Ave, Chicago, IL","4850 N ST LOUIS AVE, CHICAGO, IL",nan,41.96987691914362,-87.71599786747714,41.96987691914362;-87.71599786747714
286,"1914-1918 N Milwaukee Ave, Chicago, IL","1914-1918 N MILWAUKEE AVE, CHICAGO, IL", -transid is calculated using low address only,41.91618650749045,-87.68665453607132,41.91618650749045;-87.68665453607132
287,"166 N Aberdeen Ave, Chicago, IL","166 N ABERDEEN ST, CHICAGO, IL",STREET_TYPE CORRECTION,41.88502582436289,-87.65460592239103,41.88502582436289;-87.65460592239103
288,"2922 W Lyndale Ave, Chicago, IL","2922 W LYNDALE ST, CHICAGO, IL",STREET_TYPE CORRECTION,41.92250653160063,-87.70089236773049,41.92250653160063;-87.70089236773049
289,"2413 W Cortland Ave, Chicago, IL","2413 W CORTLAND ST, CHICAGO, IL",STREET_TYPE CORRECTION,41.915646835550504,-87.68793890712048,41.915646835550504;-87.68793890712048
290,"1819 N St Louis Ave, Chicago, IL","1819 N ST LOUIS AVE, CHICAGO, IL",nan,41.914315709333316,-87.71329341455711,41.914315709333316;-87.71329341455711
291,"3620-3624 W Cortland Ave, Chicago, IL","3620-3624 W CORTLAND ST, CHICAGO, IL",STREET_TYPE CORRECTION -transid is calculated using low address only,41.91555941483138,-87.7176265182082,41.91555941483138;-87.7176265182082
292,"3143 N Monticello Ave, Chicago, IL","3143 N MONTICELLO AVE, CHICAGO, IL",nan,41.93865763001713,-87.71840869199873,41.93865763001713;-87.71840869199873
293,"N Clarendon Ave and W Lakeside Pl, Chicago, IL",nan,BADSTREET,,,---
294,"1842-1858 W Webster Ave amd 2200-2242 N Lister Ave, Chicago, IL",nan,BADSTREET,,,---
295,"1521-1527 N Sedgwick Ave, Chicago, IL","1521-1527 N SEDGWICK ST, CHICAGO, IL",STREET_TYPE CORRECTION -transid is calculated using low address only,41.90988935913152,-87.63840703730952,41.90988935913152;-87.63840703730952
296,"2423 W Haddon Ave, Chicago, IL","2423 W HADDON AVE, CHICAGO, IL",nan,41.90196798069836,-87.68796633092725,41.90196798069836;-87.68796633092725
297,"W Bryn Mawr Ave and N Delphia Ave, Chicago, IL",nan,BADSTREET,,,---
298,"4845 N Keystone Ave, Chicago, IL","4845 N KEYSTONE AVE, CHICAGO, IL",nan,41.96952199692769,-87.72915337410969,41.96952199692769;-87.72915337410969
299,"1513 W Walton St, Chicago, IL","1513 W WALTON ST, CHICAGO, IL",nan,41.89872000987952,-87.66549480561798,41.89872000987952;-87.66549480561798
300,"1515 W Walton St, Chicago, IL","1515 W WALTON ST, CHICAGO, IL",nan,41.898718720390484,-87.66557074845973,41.898718720390484;-87.66557074845973
301,"2858 N Long St, Chicago, IL","2858 N LONG AVE, CHICAGO, IL",STREET_TYPE CORRECTION,41.93311509388793,-87.76154473217997,41.93311509388793;-87.76154473217997
302,"1357 N Rockwell Ave, Chicago, IL","1357 N ROCKWELL ST, CHICAGO, IL",ALIAS,41.90651950543594,-87.69189473447786,41.90651950543594;-87.69189473447786
303,"529 N Bishop Ave, Chicago, IL","529 N BISHOP ST, CHICAGO, IL",STREET_TYPE CORRECTION,41.891936107493514,-87.6637668115644,41.891936107493514;-87.6637668115644
304,"1362 W Evergreen Ave, Chicago, IL","1362 W EVERGREEN AVE, CHICAGO, IL",nan,41.90628385325601,-87.66219434178454,41.90628385325601;-87.66219434178454
305,"3418 W McLean Ave, Chicago, IL","3418 W MCLEAN AVE, CHICAGO, IL",nan,41.91835474665747,-87.71272171697434,41.91835474665747;-87.71272171697434
306,"4700 W Harrison Ave, Chicago, IL","4700 W HARRISON ST, CHICAGO, IL",STREET_TYPE CORRECTION,41.87330921934533,-87.74269055887379,41.87330921934533;-87.74269055887379
307,"1852 S Albany Ave, Chicago, IL","1852 S ALBANY AVE, CHICAGO, IL",nan,41.85570711701114,-87.70299144268263,41.85570711701114;-87.70299144268263
308,"1462 W Ohio St, Chicago, IL","1462 W OHIO ST, CHICAGO, IL",nan,41.89257482830589,-87.66474561577324,41.89257482830589;-87.66474561577324
309,"3830 W Lawrence Ave, Chicago, IL","3830 W LAWRENCE AVE, CHICAGO, IL",nan,41.968390431264375,-87.72444785924317,41.968390431264375;-87.72444785924317
310,"2447 N Clybourn Ave, Chicago, IL","2447 N CLYBOURN AVE, CHICAGO, IL",nan,41.92623654570951,-87.67062950632007,41.92623654570951;-87.67062950632007
311,"1838 S Morgan St, Chicago, IL","1838 S MORGAN ST, CHICAGO, IL",nan,41.85681948454315,-87.65168114967226,41.85681948454315;-87.65168114967226
312,"6455-6459 S LaCrosse Ave, Chicago, IL","6455-6459 S LA CROSSE AVE, CHICAGO, IL",ALIAS -transid is calculated using low address only,41.77495210594225,-87.74325023439938,41.77495210594225;-87.74325023439938
313,"339-355 N Morgan St, Chicago, IL","339-355 N MORGAN ST, CHICAGO, IL", -transid is calculated using low address only,41.88779952214244,-87.65205487578187,41.88779952214244;-87.65205487578187
314,"158-182 N Green St, Chicago, IL","158-182 N GREEN ST, CHICAGO, IL", -transid is calculated using low address only,41.88479683948683,-87.6487624115881,41.88479683948683;-87.6487624115881
315,"322-338 N Halsted St, Chicago, IL","322-338 N HALSTED ST, CHICAGO, IL", -transid is calculated using low address only,41.88749255109401,-87.64767535830244,41.88749255109401;-87.64767535830244
316,"310-328 N Sangamon St, Chicago, IL","310-328 N SANGAMON ST, CHICAGO, IL", -transid is calculated using low address only,41.88710986216882,-87.65116394801733,41.88710986216882;-87.65116394801733
317,"1702 N Washenaw Ave, Chicago, IL",nan,BADSTREET,,,---
318,"333 W Armitage Ave, Chicago, IL","333 W ARMITAGE AVE, CHICAGO, IL",nan,41.91823348130946,-87.63761129794115,41.91823348130946;-87.63761129794115
319,"1514 W Altgeld St, Chicago, IL","1514 W ALTGELD ST, CHICAGO, IL",nan,41.92709820162949,-87.66644577714314,41.92709820162949;-87.66644577714314
320,"1900 W Foster Ave, Chicago, IL","1900 W FOSTER AVE, CHICAGO, IL",nan,41.976184007881315,-87.67648413282181,41.976184007881315;-87.67648413282181
321,"1722 W Grand Ave, Chicago, IL","1722 W GRAND AVE, CHICAGO, IL",nan,41.89103867573601,-87.67055709234694,41.89103867573601;-87.67055709234694
322,"6900-6902 S Vernon Ave, Chicago, IL","6900-6902 S VERNON AVE, CHICAGO, IL", -transid is calculated using low address only,41.76926951825715,-87.6142881948049,41.76926951825715;-87.6142881948049
323,"3728 N Ashland Ave, Chicago, IL","3728 N ASHLAND AVE, CHICAGO, IL",nan,41.9496965042115,-87.6690757252199,41.9496965042115;-87.6690757252199
324,"1462 W Ohio St, Chicago, IL","1462 W OHIO ST, CHICAGO, IL",nan,41.89257482830589,-87.66474561577324,41.89257482830589;-87.66474561577324
325,"2221 S Lawndale Ave, Chicago, IL","2221 S LAWNDALE AVE, CHICAGO, IL",nan,41.85094816273819,-87.71726617783224,41.85094816273819;-87.71726617783224
326,"1512 N Rockwell St, Chicago, IL","1512 N ROCKWELL ST, CHICAGO, IL",nan,41.90887099201218,-87.69223218856548,41.90887099201218;-87.69223218856548
327,"1531 N Maplewood Ave, Chicago, IL","1531 N MAPLEWOOD AVE, CHICAGO, IL",nan,41.90939718137272,-87.69073738649134,41.90939718137272;-87.69073738649134
328,"2660 W Armitage Ave, Chicago, IL","2660 W ARMITAGE AVE, CHICAGO, IL",nan,41.91762401769971,-87.69465397658182,41.91762401769971;-87.69465397658182
329,"4942 N Monticelle Ave, Chicago, IL","4942 N MONTICELLO AVE, CHICAGO, IL",MINOR CORRECTION,41.97143111766488,-87.71970641968596,41.97143111766488;-87.71970641968596
330,"1811 S Laflin Ave, Chicago, IL","1811 S LAFLIN ST, CHICAGO, IL",STREET_TYPE CORRECTION,41.857501235649174,-87.6636060887606,41.857501235649174;-87.6636060887606
331,"6455-6459 S LaCrosse Ave, Chicago, IL","6455-6459 S LA CROSSE AVE, CHICAGO, IL",ALIAS -transid is calculated using low address only,41.77495210594225,-87.74325023439938,41.77495210594225;-87.74325023439938
332,"3456 W Lake St, Chicago, IL","3456 W LAKE ST, CHICAGO, IL",nan,41.88487552383212,-87.71335146734211,41.88487552383212;-87.71335146734211
333,"1900 W Pershing Pl, Chicago, IL","1900 W PERSHING PL, CHICAGO, IL",nan,41.82253966205857,-87.67286022624171,41.82253966205857;-87.67286022624171
334,"1445 N Rockwelll St, Chicago, IL","1445 N ROCKWELL ST, CHICAGO, IL",MINOR CORRECTION,41.90795730707557,-87.69191794380662,41.90795730707557;-87.69191794380662
335,"2044-2046 W Foster Ave, Chicago, IL","2044-2046 W FOSTER AVE, CHICAGO, IL", -transid is calculated using low address only,41.97611413354546,-87.6811953388094,41.97611413354546;-87.6811953388094
336,"1415 N Rockwell St, Chicago, IL","1415 N ROCKWELL ST, CHICAGO, IL",nan,41.9071098298158,-87.69189866323876,41.9071098298158;-87.69189866323876
337,"1350 S Union Ave, Chicago, IL","1350 S UNION AVE, CHICAGO, IL",nan,41.863960366977885,-87.64516745909498,41.863960366977885;-87.64516745909498
338,"1428-1472 W Willow St, Chicago, IL","1428-1472 W WILLOW ST, CHICAGO, IL", -transid is calculated using low address only,41.91445535620603,-87.66302064909294,41.91445535620603;-87.66302064909294
339,"4024 N Lincoln Ave, Chicago, IL","4024 N LINCOLN AVE, CHICAGO, IL",nan,41.95492303714853,-87.67945708741662,41.95492303714853;-87.67945708741662
340,"2601 W Washington Blvd, Chicago, IL","2601 W WASHINGTON BLVD, CHICAGO, IL",nan,41.88284536224974,-87.69118451424475,41.88284536224974;-87.69118451424475
341,"1622-1626 W Blackhawk St, Chicago, IL","1622-1626 W BLACKHAWK ST, CHICAGO, IL", -transid is calculated using low address only,41.907124355764026,-87.66851328144374,41.907124355764026;-87.66851328144374
342,"8022-8024 S Honroe St, Chicago, IL","8022-8024 S HONORE ST, CHICAGO, IL",MINOR CORRECTION -transid is calculated using low address only,41.747742379708804,-87.66958330715356,41.747742379708804;-87.66958330715356
343,"2061-2081 N Southport Ave, Chicago, IL","2061-2081 N SOUTHPORT AVE, CHICAGO, IL", -transid is calculated using low address only,41.919481465692655,-87.66299600037965,41.919481465692655;-87.66299600037965
344,"101-213 W Roosevelt Rd, Chicago, IL","101-213 W ROOSEVELT RD, CHICAGO, IL", -transid is calculated using low address only,41.86726343023051,-87.6304869680426,41.86726343023051;-87.6304869680426
345,"3401 S Emerald Ave, Chicago, IL","3401 S EMERALD AVE, CHICAGO, IL",nan,41.83250479126989,-87.64478200039217,41.83250479126989;-87.64478200039217
346,"4801-4837 W Peterson Ave, Chicago, IL","4801-4837 W PETERSON AVE, CHICAGO, IL", -transid is calculated using low address only,41.98978848882414,-87.74837384448922,41.98978848882414;-87.74837384448922
347,"1945-1951 N Richmond St a k a 2915-2923 W Armitage Ave, Chicago, IL",nan,BADSTREET,,,---
348,"532 N Ogden Ave, Chicago, IL","532 N OGDEN AVE, CHICAGO, IL",nan,41.891967243335486,-87.6584439485489,41.891967243335486;-87.6584439485489
349,"2121 W Addison St, Chicago, IL","2121 W ADDISON ST, CHICAGO, IL",nan,41.94671022584447,-87.68187979131112,41.94671022584447;-87.68187979131112
350,"2000-2016 N Milwaukee Ave, Chicago, IL","2000-2016 N MILWAUKEE AVE, CHICAGO, IL", -transid is calculated using low address only,41.91749660793663,-87.68871960839853,41.91749660793663;-87.68871960839853
351,"400-410 N Green St, Chicago, IL","400-410 N GREEN ST, CHICAGO, IL", -transid is calculated using low address only,41.889042936189526,-87.64887381421492,41.889042936189526;-87.64887381421492
352,"2601-2643 W Barry Ave, Chicago, IL","2601-2643 W BARRY AVE, CHICAGO, IL", -transid is calculated using low address only,41.937664684815864,-87.69301316019279,41.937664684815864;-87.69301316019279
353,"2429 W August Blvd, Chicago, IL","2429 W AUGUSTA BLVD, CHICAGO, IL",STREET NAME CORRECTION,41.89925569601498,-87.68812651361361,41.89925569601498;-87.68812651361361
354,"1463-1483 N Kingsbury St, Chicago, IL","1463-1483 N KINGSBURY ST, CHICAGO, IL", -transid is calculated using low address only,41.90770620289279,-87.65129398643262,41.90770620289279;-87.65129398643262
355,"213-233 N Ogden Ave, Chicago, IL","213-233 N OGDEN AVE, CHICAGO, IL", -transid is calculated using low address only,41.88597569525286,-87.66222203476248,41.88597569525286;-87.66222203476248
356,"2342 W Foster Ave, Chicago, IL","2342 W FOSTER AVE, CHICAGO, IL",nan,41.976009537370814,-87.68847793140317,41.976009537370814;-87.68847793140317
357,"615-621 N Ogden Ave, Chicago, IL","615-621 N OGDEN AVE, CHICAGO, IL", -transid is calculated using low address only,41.89303832703819,-87.6571496818062,41.89303832703819;-87.6571496818062
358,"3127-3137 W Carroll St, Chicago, IL","3127-3137 W CARROLL AVE, CHICAGO, IL",STREET_TYPE CORRECTION -transid is calculated using low address only,41.88742623107079,-87.70496840459194,41.88742623107079;-87.70496840459194
359,"1511-1513 W Ohio Ave, Chicago, IL","1511-1513 W OHIO ST, CHICAGO, IL",STREET_TYPE CORRECTION -transid is calculated using low address only,41.892335938486106,-87.66604035444286,41.892335938486106;-87.66604035444286
360,"800-804 W Algeld St, Chicago, IL",nan,BADSTREET,,,---
361,"2757 W Warren Blvd, Chicago, IL","2757 W WARREN BLVD, CHICAGO, IL",nan,41.88188510029259,-87.69611581455779,41.88188510029259;-87.69611581455779
362,"5270-5274 N Luna Ave, Chicago, IL","5270-5274 N LUNA AVE, CHICAGO, IL", -transid is calculated using low address only,41.976632412143694,-87.76738147788016,41.976632412143694;-87.76738147788016
363,"2611 W Gladys St, Chicago, IL","2611 W GLADYS AVE, CHICAGO, IL",STREET_TYPE CORRECTION,41.87664838732733,-87.69181972160263,41.87664838732733;-87.69181972160263
364,"2459 S Washtenaw Ave, Chicago, IL","2459 S WASHTENAW AVE, CHICAGO, IL",nan,41.84651671396631,-87.69269634622046,41.84651671396631;-87.69269634622046
365,"2323-2325 S California Ave, Chicago, IL","2323-2325 S CALIFORNIA AVE, CHICAGO, IL", -transid is calculated using low address only,41.84928810743787,-87.69522762729439,41.84928810743787;-87.69522762729439
366,"2655-2659 W Luther St, Chicago, IL","2655-2659 W LUTHER ST, CHICAGO, IL", -transid is calculated using low address only,41.846999683594,-87.69258065354612,41.846999683594;-87.69258065354612
367,"1446 W Chestnut St, Chicago, IL","1446 W CHESTNUT ST, CHICAGO, IL",nan,41.898049196535055,-87.6642831488707,41.898049196535055;-87.6642831488707
368,"5124 N Claremont Ave, Chicago, IL","5124 N CLAREMONT AVE, CHICAGO, IL",nan,41.97477612137327,-87.68805541300816,41.97477612137327;-87.68805541300816
369,"1963 N Halsted St, Chicago, IL","1963 N HALSTED ST, CHICAGO, IL",nan,41.91775876771313,-87.64834410736829,41.91775876771313;-87.64834410736829
370,"1001 N Lawndale Ave, Chicago, IL","1001 N LAWNDALE AVE, CHICAGO, IL",nan,41.89917784599252,-87.71872898179666,41.89917784599252;-87.71872898179666
371,"1818 N Sawyer Ave, Chicago, IL","1818 N SAWYER AVE, CHICAGO, IL",nan,41.91431462628163,-87.70871779881881,41.91431462628163;-87.70871779881881
372,"1234 W Ohio St, Chicago, IL","1234 W OHIO ST, CHICAGO, IL",nan,41.89264006041242,-87.65885299549079,41.89264006041242;-87.65885299549079
373,"3264-3270 N Clark St, Chicago, IL","3264-3270 N CLARK ST, CHICAGO, IL", -transid is calculated using low address only,41.941482274335975,-87.65208255434665,41.941482274335975;-87.65208255434665
374,"303 W Division St, Chicago, IL","303 W DIVISION ST, CHICAGO, IL",nan,41.903718120319546,-87.63620861910927,41.903718120319546;-87.63620861910927
375,"353 W Grand Ave, Chicago, IL","353 W GRAND AVE, CHICAGO, IL",nan,41.89142756769387,-87.63758459390144,41.89142756769387;-87.63758459390144
376,"200-208 W Chicago Ave, Chicago, IL","200-208 W CHICAGO AVE, CHICAGO, IL", -transid is calculated using low address only,41.89670454941171,-87.63428012752732,41.89670454941171;-87.63428012752732
377,"1230 W Washington Blvd, Chicago, IL","1230 W WASHINGTON BLVD, CHICAGO, IL",nan,41.8830742170086,-87.65788161785652,41.8830742170086;-87.65788161785652
378,"2209 W Belmont Ave, Chicago, IL","2209 W BELMONT AVE, CHICAGO, IL",nan,41.939398174190764,-87.68362045402304,41.939398174190764;-87.68362045402304
379,"1907 W Ohio St, Chicago, IL","1907 W OHIO ST, CHICAGO, IL",nan,41.8921938519375,-87.67485256135491,41.8921938519375;-87.67485256135491
380,"1509-1513 N Kedvale Ave, Chicago, IL","1509-1513 N KEDVALE AVE, CHICAGO, IL", -transid is calculated using low address only,41.90845937158836,-87.73000725714114,41.90845937158836;-87.73000725714114
381,"3113 S Morgan Ave, Chicago, IL","3113 S MORGAN ST, CHICAGO, IL",STREET_TYPE CORRECTION,41.83751474766186,-87.65098466678081,41.83751474766186;-87.65098466678081
382,"118-134 N Green St, Chicago, IL","118-134 N GREEN ST, CHICAGO, IL", -transid is calculated using low address only,41.88372230359589,-87.64873046386228,41.88372230359589;-87.64873046386228
383,"300-314 N Halsted St, Chicago, IL","300-314 N HALSTED ST, CHICAGO, IL", -transid is calculated using low address only,41.88682458463055,-87.64765355166207,41.88682458463055;-87.64765355166207
384,"3045 W Fifth Ave, Chicago, IL","3045 W FIFTH AVE, CHICAGO, IL",nan,41.87916150495099,-87.70275975158114,41.87916150495099;-87.70275975158114
385,"2038 W Superior Ave, Chicago, IL","2038 W SUPERIOR ST, CHICAGO, IL",STREET_TYPE CORRECTION,41.89488603374428,-87.67858724802257,41.89488603374428;-87.67858724802257
386,"1121-1125 W Randolph St, Chicago, IL","1121-1125 W RANDOLPH ST, CHICAGO, IL", -transid is calculated using low address only,41.88415758597869,-87.65536816791261,41.88415758597869;-87.65536816791261
387,"3053-3065 N Knox Ave, Chicago, IL","3053-3065 N KNOX AVE, CHICAGO, IL", -transid is calculated using low address only,41.936701591517775,-87.74300847520323,41.936701591517775;-87.74300847520323
388,"1319 N Lamon Ave, Chicago, IL","1319 N LAMON AVE, CHICAGO, IL",nan,41.90480463590897,-87.74832727392655,41.90480463590897;-87.74832727392655
389,"1551 N Kostner Ave, Chicago, IL","1551 N KOSTNER AVE, CHICAGO, IL",nan,41.90914749585542,-87.7361801588813,41.90914749585542;-87.7361801588813
390,"831 N Mozart Ave, Chicago, IL","831 N MOZART ST, CHICAGO, IL",STREET_TYPE CORRECTION,41.89660641608802,-87.69782273259624,41.89660641608802;-87.69782273259624
391,"1652 N Monticello Ave, Chicago, IL","1652 N MONTICELLO AVE, CHICAGO, IL",nan,41.91154099376583,-87.71796262808216,41.91154099376583;-87.71796262808216
392,"1633 N Central Park Ave, Chicago, IL","1633 N CENTRAL PARK AVE, CHICAGO, IL",nan,41.91098972135837,-87.7164312637942,41.91098972135837;-87.7164312637942
393,"1616 N St Louis Ave, Chicago, IL","1616 N ST LOUIS AVE, CHICAGO, IL",nan,41.91057515407279,-87.713468235196,41.91057515407279;-87.713468235196
394,"1323 W Wrightwood Ave, Chicago, IL","1323 W WRIGHTWOOD AVE, CHICAGO, IL",nan,41.92876209098891,-87.6620027637517,41.92876209098891;-87.6620027637517
395,"2445 W Superior St, Chicago, IL","2445 W SUPERIOR ST, CHICAGO, IL",nan,41.89469603328033,-87.68861954407348,41.89469603328033;-87.68861954407348
396,"400 N Lake Shore Dr, Chicago, IL","400 N LAKE SHORE DR, CHICAGO, IL",nan,41.889418400236465,-87.61427018822165,41.889418400236465;-87.61427018822165
397,"6506 S Green St, Chicago, IL","6506 S GREEN ST, CHICAGO, IL",nan,41.7758306406786,-87.6460483617246,41.7758306406786;-87.6460483617246
398,"1511 W Erie St, Chicago, IL","1511 W ERIE ST, CHICAGO, IL",nan,41.89325196815888,-87.66606564071031,41.89325196815888;-87.66606564071031
399,"101-213 W Roosevelt Rd, Chicago, IL","101-213 W ROOSEVELT RD, CHICAGO, IL", -transid is calculated using low address only,41.86726343023051,-87.6304869680426,41.86726343023051;-87.6304869680426
400,"2612 W Cortland Ave, Chicago, IL","2612 W CORTLAND ST, CHICAGO, IL",STREET_TYPE CORRECTION,41.91582126734981,-87.69278584333709,41.91582126734981;-87.69278584333709
401,"842 N Fairfield Ave, Chicago, IL","842 N FAIRFIELD AVE, CHICAGO, IL",nan,41.89696938398957,-87.6956480192236,41.89696938398957;-87.6956480192236
402,"3631-3657 N Central Ave, Chicago, IL","3631-3657 N CENTRAL AVE, CHICAGO, IL", -transid is calculated using low address only,41.946838844655176,-87.76664283410466,41.946838844655176;-87.76664283410466
403,"121-125 S Peoria St, Chicago, IL","121-125 S PEORIA ST, CHICAGO, IL", -transid is calculated using low address only,41.87978718705445,-87.64948983005236,41.87978718705445;-87.64948983005236
404,"341-347 N Kedzie Ave, Chicago, IL","341-347 N KEDZIE AVE, CHICAGO, IL", -transid is calculated using low address only,41.88755939004964,-87.7061686959643,41.88755939004964;-87.7061686959643
405,"9001 S Halsted St, Chicago, IL","9001 S HALSTED ST, CHICAGO, IL",nan,41.73074512375212,-87.64331924373376,41.73074512375212;-87.64331924373376
406,"301-315 N Elizabeth St, Chicago, IL","301-315 N ELIZABETH ST, CHICAGO, IL", -transid is calculated using low address only,41.88670144057013,-87.65874590562413,41.88670144057013;-87.65874590562413
407,"4241 N Ravenswod Ave, Chicago, IL","4241 N RAVENSWOOD AVE, CHICAGO, IL",STREET NAME CORRECTION,41.959105443227436,-87.67376227707415,41.959105443227436;-87.67376227707415
408,"2333 W Montana St, Chicago, IL","2333 W MONTANA ST, CHICAGO, IL",nan,41.92557008676313,-87.68655696851977,41.92557008676313;-87.68655696851977
409,"2454 S Spaulding St, Chicago, IL","2454 S SPAULDING AVE, CHICAGO, IL",STREET_TYPE CORRECTION,41.846495324915225,-87.70768211501597,41.846495324915225;-87.70768211501597
410,"1545-1549 W Diversey Pkwy, Chicago, IL","1545-1549 W DIVERSEY PKWY, CHICAGO, IL", -transid is calculated using low address only,41.9323016136588,-87.667748089183,41.9323016136588;-87.667748089183
411,"2725 W Potomac St, Chicago, IL","2725 W POTOMAC AVE, CHICAGO, IL",STREET_TYPE CORRECTION,41.90465501936134,-87.69550136775894,41.90465501936134;-87.69550136775894
412,"2738 W Chicago Ave, Chicago, IL","2738 W CHICAGO AVE, CHICAGO, IL",nan,41.895765706873,-87.69571605590129,41.895765706873;-87.69571605590129
413,"6035 S Green St, Chicago, IL","6035 S GREEN ST, CHICAGO, IL",nan,41.78413807493281,-87.64596380980613,41.78413807493281;-87.64596380980613
414,"3538 N Lowell Ave, Chicago, IL","3538 N LOWELL AVE, CHICAGO, IL",nan,41.9456050575199,-87.73613955642627,41.9456050575199;-87.73613955642627
415,"2150 W Foster Ave, Chicago, IL","2150 W FOSTER AVE, CHICAGO, IL",nan,41.97607707167927,-87.68386810812918,41.97607707167927;-87.68386810812918
416,"1405-1413 W Diversey Pkwy, Chicago, IL","1405-1413 W DIVERSEY PKWY, CHICAGO, IL", -transid is calculated using low address only,41.93236695523315,-87.66379155691564,41.93236695523315;-87.66379155691564
417,"1514-1518 W Diversey Pkwy, Chicago, IL","1514-1518 W DIVERSEY PKWY, CHICAGO, IL", -transid is calculated using low address only,41.93254001341478,-87.66659172902088,41.93254001341478;-87.66659172902088
418,"2418 W Lyndale St, Chicago, IL","2418 W LYNDALE ST, CHICAGO, IL",nan,41.92257394057443,-87.68836652621296,41.92257394057443;-87.68836652621296
419,"2243 W Grand Ave, Chicago, IL","2243 W GRAND AVE, CHICAGO, IL",nan,41.89060347977447,-87.68351636041606,41.89060347977447;-87.68351636041606
420,"2626 S Wallace St, Chicago, IL","2626 S WALLACE ST, CHICAGO, IL",nan,41.84467821466092,-87.6417126947501,41.84467821466092;-87.6417126947501
421,"1741 S Ruble St, Chicago, IL","1741 S RUBLE ST, CHICAGO, IL",nan,41.85796073185541,-87.64365834537288,41.85796073185541;-87.64365834537288
422,"3139 N Central Park Ave, Chicago, IL","3139 N CENTRAL PARK AVE, CHICAGO, IL",nan,41.938562436234186,-87.71722647910944,41.938562436234186;-87.71722647910944
423,"2465-2479 W Foster Ave, Chicago, IL","2465-2479 W FOSTER AVE, CHICAGO, IL", -transid is calculated using low address only,41.975760730957425,-87.69172184710314,41.975760730957425;-87.69172184710314
424,"1712-1720 N Damen Ave, Chicago, IL","1712-1720 N DAMEN AVE, CHICAGO, IL", -transid is calculated using low address only,41.91272097038942,-87.67766164732578,41.91272097038942;-87.67766164732578
425,"7131 N Western Ave, Chicago, IL","7131 N WESTERN AVE, CHICAGO, IL",nan,42.01194577242265,-87.69009528900467,42.01194577242265;-87.69009528900467
426,"3401-3425 N California Ave, Chicago, IL","3401-3425 N CALIFORNIA AVE, CHICAGO, IL", -transid is calculated using low address only,41.94289774197687,-87.69777831670288,41.94289774197687;-87.69777831670288
427,"3911-3985 N Milwaukee Ave, Chicago, IL","3911-3985 N MILWAUKEE AVE, CHICAGO, IL", -transid is calculated using low address only,41.95197709788517,-87.74474616815864,41.95197709788517;-87.74474616815864
428,"1842-1858 W Webster Ave, Chicago, IL","1842-1858 W WEBSTER AVE, CHICAGO, IL", -transid is calculated using low address only,41.92156284244745,-87.67420078469118,41.92156284244745;-87.67420078469118
429,"2417 S Christiana Ave, Chicago, IL","2417 S CHRISTIANA AVE, CHICAGO, IL",nan,41.84755320547685,-87.70863456627094,41.84755320547685;-87.70863456627094
430,"1111-1141 S Homan Ave, Chicago, IL","1111-1141 S HOMAN AVE, CHICAGO, IL", -transid is calculated using low address only,41.867803062971156,-87.71044098694865,41.867803062971156;-87.71044098694865
431,"4400-4424 and 4401-4415 N Clarendon Ave, Chicago, IL",nan,BADSTREET,,,---
432,"3704-3710 N Cicero Ave, Chicago, IL","3704-3710 N CICERO AVE, CHICAGO, IL", -transid is calculated using low address only,41.94810372749425,-87.7472903844035,41.94810372749425;-87.7472903844035
433,"1134 W Diversey Pkwy, Chicago, IL","1134 W DIVERSEY PKWY, CHICAGO, IL",nan,41.93269114409563,-87.65728254593192,41.93269114409563;-87.65728254593192
434,"4010 N Lincoln Ave, Chicago, IL","4010 N LINCOLN AVE, CHICAGO, IL",nan,41.95462355475749,-87.67924530167328,41.95462355475749;-87.67924530167328
435,"1534 W Augusta Blvd, Chicago, IL","1534 W AUGUSTA BLVD, CHICAGO, IL",nan,41.89983639227494,-87.66631050576875,41.89983639227494;-87.66631050576875
436,"1520-1532 N Wells St, Chicago, IL","1520-1532 N WELLS ST, CHICAGO, IL", -transid is calculated using low address only,41.90980181903738,-87.63481481178624,41.90980181903738;-87.63481481178624
437,"200-208 W Chicago Ave, Chicago, IL","200-208 W CHICAGO AVE, CHICAGO, IL", -transid is calculated using low address only,41.89670454941171,-87.63428012752732,41.89670454941171;-87.63428012752732
438,"2948-2954 W Armitage Ave, Chicago, IL","2948-2954 W ARMITAGE AVE, CHICAGO, IL", -transid is calculated using low address only,41.91756045324027,-87.70124203401075,41.91756045324027;-87.70124203401075
439,"6000-6022 N Stevens Ave, Chicago, IL","6000-6022 N STEVENS AVE, CHICAGO, IL", -transid is calculated using low address only,41.990362609913845,-87.73008433900664,41.990362609913845;-87.73008433900664
440,"500-512 N Laramie Ave, Chicago, IL","500-512 N LARAMIE AVE, CHICAGO, IL", -transid is calculated using low address only,41.8889589028908,-87.75552902588885,41.8889589028908;-87.75552902588885
441,"3343 N Halsted St, Chicago, IL","3343 N HALSTED ST, CHICAGO, IL",nan,41.94306978943972,-87.64921660918642,41.94306978943972;-87.64921660918642
442,"6300 N Ridge Ave, Chicago, IL","6300 N RIDGE AVE, CHICAGO, IL",nan,41.99557919699579,-87.67587688398633,41.99557919699579;-87.67587688398633
443,"1800-1808 W Berenice Ave, Chicago, IL","1800-1808 W BERENICE AVE, CHICAGO, IL", -transid is calculated using low address only,41.95159256364248,-87.67427393856426,41.95159256364248;-87.67427393856426
444,"1330-1364 W Washington Blvd, Chicago, IL","1330-1364 W WASHINGTON BLVD, CHICAGO, IL", -transid is calculated using low address only,41.883030054908005,-87.66085050598947,41.883030054908005;-87.66085050598947
445,"6542-6558 N Clark St, Chicago, IL","6542-6558 N CLARK ST, CHICAGO, IL", -transid is calculated using low address only,42.00114538721074,-87.67181603957098,42.00114538721074;-87.67181603957098
446,"835 W Addison St, Chicago, IL","835 W ADDISON ST, CHICAGO, IL",nan,41.947191773865626,-87.65083813240796,41.947191773865626;-87.65083813240796
447,"1465-1483 N Kingsbury St, Chicago, IL","1465-1483 N KINGSBURY ST, CHICAGO, IL", -transid is calculated using low address only,41.90775274980195,-87.65133310181892,41.90775274980195;-87.65133310181892
448,"4000-4180 W Diversey Ave, Chicago, IL","4000-4180 W DIVERSEY AVE, CHICAGO, IL", -transid is calculated using low address only,41.9318977231462,-87.72710503045386,41.9318977231462;-87.72710503045386
449,"46-74 W Oak St, Chicago, IL","46-74 W OAK ST, CHICAGO, IL", -transid is calculated using low address only,41.9006811963512,-87.62996480897291,41.9006811963512;-87.62996480897291
450,"5214-5224 N Lincoln Ave, Chicago, IL","5214-5224 N LINCOLN AVE, CHICAGO, IL", -transid is calculated using low address only,41.97635052440991,-87.69250979475457,41.97635052440991;-87.69250979475457
451,"2156 N Kimball Ave, Chicago, IL","2156 N KIMBALL AVE, CHICAGO, IL",nan,41.92089527941537,-87.71213410245794,41.92089527941537;-87.71213410245794
452,"5366-5370 W Devon Ave, Chicago, IL","5366-5370 W DEVON AVE, CHICAGO, IL", -transid is calculated using low address only,41.99743697883537,-87.76332884843507,41.99743697883537;-87.76332884843507
453,"3723-3753 Archer Ave, Chicago, IL",nan, -transid is calculated using low address only,,,---
454,"311-315 N Sangamon St, Chicago, IL","311-315 N SANGAMON ST, CHICAGO, IL", -transid is calculated using low address only,41.887114585601694,-87.65087022605566,41.887114585601694;-87.65087022605566
455,"3300 W Pershing Rd, Chicago, IL","3300 W PERSHING RD, CHICAGO, IL",nan,41.822665390851235,-87.70697750087304,41.822665390851235;-87.70697750087304
456,"4834 S Oakley Ave, Chicago, IL","4834 S OAKLEY AVE, CHICAGO, IL",nan,41.80561226466962,-87.68204209328057,41.80561226466962;-87.68204209328057
457,"615 N Ogden Ave, Chicago, IL","615 N OGDEN AVE, CHICAGO, IL",nan,41.89303832703819,-87.6571496818062,41.89303832703819;-87.6571496818062
458,"2401 S Homan Ave, Chicago, IL","2401 S HOMAN AVE, CHICAGO, IL",nan,41.84798895929644,-87.70987019799169,41.84798895929644;-87.70987019799169
459,"2145 W Montrose Ave, Chicago, IL","2145 W MONTROSE AVE, CHICAGO, IL",nan,41.961286607225084,-87.68325917734168,41.961286607225084;-87.68325917734168
460,"650 N Wood St, Chicago, IL","650 N WOOD ST, CHICAGO, IL",nan,41.89387461141581,-87.67225364987102,41.89387461141581;-87.67225364987102
461,"4921 W Belmont Ave, Chicago, IL","4921 W BELMONT AVE, CHICAGO, IL",nan,41.93867241790475,-87.75031401889545,41.93867241790475;-87.75031401889545
462,"4830 W Diversey Ave, Chicago, IL","4830 W DIVERSEY AVE, CHICAGO, IL",nan,41.93162689120521,-87.74786630627652,41.93162689120521;-87.74786630627652
463,"2601-2625 S Wabash Ave, Chicago, IL","2601-2625 S WABASH AVE, CHICAGO, IL", -transid is calculated using low address only,41.84554885665057,-87.62517735730876,41.84554885665057;-87.62517735730876
464,"523-545 S Wabash Ave, Chicago, IL","523-545 S WABASH AVE, CHICAGO, IL", -transid is calculated using low address only,41.87518993616472,-87.62586798318982,41.87518993616472;-87.62586798318982
465,"7152-7190 W North Ave, Chicago, IL","7152-7190 W NORTH AVE, CHICAGO, IL", -transid is calculated using low address only,41.908996543980784,-87.80411944101357,41.908996543980784;-87.80411944101357
466,"1922 W Wilmont Ave, Chicago, IL","1922 N WILMOT AVE, CHICAGO, IL",ALIAS PRE_DIR CORRECTION,41.916438291282475,-87.68547845277902,41.916438291282475;-87.68547845277902
467,"4417-4431 W Belmont Ave, Chicago, IL","4417-4431 W BELMONT AVE, CHICAGO, IL", -transid is calculated using low address only,41.938842825773676,-87.73777532333281,41.938842825773676;-87.73777532333281
468,"5214-5224 N Lincoln Ave, Chicago, IL","5214-5224 N LINCOLN AVE, CHICAGO, IL", -transid is calculated using low address only,41.97635052440991,-87.69250979475457,41.97635052440991;-87.69250979475457
469,"5415 W Higgins Ave, Chicago, IL","5415 W HIGGINS AVE, CHICAGO, IL",nan,41.968723055464324,-87.76207535736165,41.968723055464324;-87.76207535736165
470,"160 N Morgan St, Chicago, IL","160 N MORGAN ST, CHICAGO, IL",nan,41.884895408116236,-87.65226488412628,41.884895408116236;-87.65226488412628
471,"2101-2125 W Lyndale St, Chicago, IL","2101-2125 W LYNDALE ST, CHICAGO, IL", -transid is calculated using low address only,41.922603887936134,-87.68033205220429,41.922603887936134;-87.68033205220429
472,"1319-1325 S Ashland Ave, Chicago, IL","1319-1325 S ASHLAND AVE, CHICAGO, IL", -transid is calculated using low address only,41.864471986865844,-87.66618187436247,41.864471986865844;-87.66618187436247
473,"1649-1659 W Wolfram St, Chicago, IL","1649-1659 W WOLFRAM ST, CHICAGO, IL", -transid is calculated using low address only,41.93317268753121,-87.67035804000507,41.93317268753121;-87.67035804000507
474,"4447-4459 N Hazel St, Chicago, IL","4447-4459 N HAZEL ST, CHICAGO, IL", -transid is calculated using low address only,41.963210055013185,-87.65221076227891,41.963210055013185;-87.65221076227891
475,"142-172 W Chicago Ave, Chicago, IL","142-172 W CHICAGO AVE, CHICAGO, IL", -transid is calculated using low address only,41.896723104898314,-87.63278396686503,41.896723104898314;-87.63278396686503
476,"3100-3110 W Peterson Ave, Chicago, IL","3100-3110 W PETERSON AVE, CHICAGO, IL", -transid is calculated using low address only,41.990508160600136,-87.7067186781764,41.990508160600136;-87.7067186781764
477,"2001 N Harlem Ave, Chicago, IL","2001 N HARLEM AVE, CHICAGO, IL",nan,41.91628389135787,-87.80586288035137,41.91628389135787;-87.80586288035137
478,"1002 S Racine Ave, Chicago, IL","1002 S RACINE AVE, CHICAGO, IL",nan,41.869300912711964,-87.65689877868647,41.869300912711964;-87.65689877868647
479,"1628-1658 W Wolfram St, Chicago, IL","1628-1658 W WOLFRAM ST, CHICAGO, IL", -transid is calculated using low address only,41.93340072729407,-87.66960916899512,41.93340072729407;-87.66960916899512
480,"615 N Ogden Ave, Chicago, IL","615 N OGDEN AVE, CHICAGO, IL",nan,41.89303832703819,-87.6571496818062,41.89303832703819;-87.6571496818062
481,"1827 S May St, Chicago, IL","1827 S MAY ST, CHICAGO, IL",nan,41.85713647650845,-87.65467936286473,41.85713647650845;-87.65467936286473
482,"1132-1157 W Lake St, Chicago, IL","1132-1157 W LAKE ST, CHICAGO, IL", -transid is calculated using low address only,41.88563258636596,-87.65570288829701,41.88563258636596;-87.65570288829701
483,"1017-1039 N LaSalle St, Chicago, IL","1017-1039 N LA SALLE DR, CHICAGO, IL",ALIAS STREET_TYPE CORRECTION BY ADDRESS RANGE -transid is calculated using low address only,41.90108084864571,-87.63269935304534,41.90108084864571;-87.63269935304534
484,"7138 N Sheridan Rd, Chicago, IL","7138 N SHERIDAN RD, CHICAGO, IL",nan,42.01235658103838,-87.6633812952827,42.01235658103838;-87.6633812952827
485,"7400-7404 W Talcott Ave, Chicago, IL","7400-7404 W TALCOTT AVE, CHICAGO, IL", -transid is calculated using low address only,41.98829063164011,-87.8118746573316,41.98829063164011;-87.8118746573316
486,"315 N May St, Chicago, IL","315 N MAY ST, CHICAGO, IL",nan,41.88720279845094,-87.6555402642378,41.88720279845094;-87.6555402642378
487,"2124 W Coulter St, Chicago, IL","2124 W COULTER ST, CHICAGO, IL",nan,41.848271062508466,-87.67917922761107,41.848271062508466;-87.67917922761107
488,"1753 W Cornelia Ave, Chicago, IL","1753 W CORNELIA AVE, CHICAGO, IL",nan,41.944990110316056,-87.67333436156987,41.944990110316056;-87.67333436156987
489,"5050-5098 and 5093-5099 W Jackson Blvd, Chicago, IL",nan,BADSTREET,,,---
490,"1201-1235 W Washington Blvd, Chicago, IL","1203-1235 W WASHINGTON BLVD, CHICAGO, IL", -transid is calculated using low address only,41.882872795851405,-87.65674619589271,41.882872795851405;-87.65674619589271
491,"4030 N Marine Dr, Chicago, IL","4030 N MARINE DR, CHICAGO, IL",nan,41.95552293114562,-87.64560510027025,41.95552293114562;-87.64560510027025
492,"3840 N Lincoln Ave, Chicago, IL","3840 N LINCOLN AVE, CHICAGO, IL",nan,41.95154379179937,-87.67710428338394,41.95154379179937;-87.67710428338394
493,"1101-1109 W Granville Ave, Chicago, IL","1101-1109 W GRANVILLE AVE, CHICAGO, IL", -transid is calculated using low address only,41.99446570794909,-87.65839281321112,41.99446570794909;-87.65839281321112
494,"1218 W Lexington St, Chicago, IL","1218 W LEXINGTON ST, CHICAGO, IL",nan,41.87235139120177,-87.65756071154372,41.87235139120177;-87.65756071154372
495,"1650 N Spaulding Ave, Chicago, IL","1650 N SPAULDING AVE, CHICAGO, IL",nan,41.911578609818896,-87.71026095198513,41.911578609818896;-87.71026095198513
496,"1353 W Fulton St, Chicago, IL","1353 W FULTON ST, CHICAGO, IL",nan,41.8865067224045,-87.66085382986958,41.8865067224045;-87.66085382986958
497,"9049-9059 S Western Ave, Chicago, IL","9049-9059 S WESTERN AVE, CHICAGO, IL", -transid is calculated using low address only,41.72861214014875,-87.68215499904831,41.72861214014875;-87.68215499904831
498,"2542-2558 S Federal St, Chicago, IL","2542-2558 S FEDERAL ST, CHICAGO, IL", -transid is calculated using low address only,41.84608621060866,-87.62933364489791,41.84608621060866;-87.62933364489791
499,"2308-2316 W Leland Ave, Chicago, IL","2308-2316 W LELAND AVE, CHICAGO, IL", -transid is calculated using low address only,41.96682443406701,-87.68789283801166,41.96682443406701;-87.68789283801166
500,"6334-6356 N Whipple Ave, Chicago, IL","6334-6356 N WHIPPLE ST, CHICAGO, IL",STREET_TYPE CORRECTION -transid is calculated using low address only,41.996702473783635,-87.705828750149,41.996702473783635;-87.705828750149
501,"5330-5338 W Argyle St, Chicago, IL","5330-5338 W ARGYLE ST, CHICAGO, IL", -transid is calculated using low address only,41.97164700279526,-87.76144795807853,41.97164700279526;-87.76144795807853
502,"3919-3925 W Cullom Ave, Chicago, IL","3919-3925 W CULLOM AVE, CHICAGO, IL", -transid is calculated using low address only,41.95903610861148,-87.72614726761338,41.95903610861148;-87.72614726761338
503,"524-628 W Diversey Pkwy, Chicago, IL","524-628 W DIVERSEY PKWY, CHICAGO, IL", -transid is calculated using low address only,41.93296066016708,-87.64237223166387,41.93296066016708;-87.64237223166387
504,"1744-1754 W Addison St, Chicago, IL","1744-1754 W ADDISON ST, CHICAGO, IL", -transid is calculated using low address only,41.947043390413135,-87.67314702877835,41.947043390413135;-87.67314702877835
505,"3350 N Ashland Ave, Chicago, IL","3350 N ASHLAND AVE, CHICAGO, IL",nan,41.94305820056565,-87.66890264059164,41.94305820056565;-87.66890264059164
506,"3914-3930 N Lincoln Ave, Chicago, IL","3914-3930 N LINCOLN AVE, CHICAGO, IL", -transid is calculated using low address only,41.95271394620794,-87.67791660042091,41.95271394620794;-87.67791660042091
507,"2440 W Division St, Chicago, IL","2440 W DIVISION ST, CHICAGO, IL",nan,41.90311067100929,-87.6885768059171,41.90311067100929;-87.6885768059171
508,"1907 W Garfield Blvd, Chicago, IL","1907 W GARFIELD BLVD, CHICAGO, IL",nan,41.79346353775511,-87.67218469613573,41.79346353775511;-87.67218469613573
509,"1402 W Chestnut St, Chicago, IL","1402 W CHESTNUT ST, CHICAGO, IL",nan,41.89807598022623,-87.66265322783258,41.89807598022623;-87.66265322783258
510,"2124 S Ashland Ave, Chicago, IL","2124 S ASHLAND AVE, CHICAGO, IL",nan,41.85334333851972,-87.66618048285136,41.85334333851972;-87.66618048285136
511,"856 N Harding Ave, Chicago, IL","856 N HARDING AVE, CHICAGO, IL",nan,41.89705538366232,-87.72506170841606,41.89705538366232;-87.72506170841606
512,"170 N Green St, Chicago, IL","170 N GREEN ST, CHICAGO, IL",nan,41.885160519284454,-87.64877322369362,41.885160519284454;-87.64877322369362
513,"936 N Elston Ave, Chicago, IL","936 N ELSTON AVE, CHICAGO, IL",nan,41.89946393510293,-87.6567775258054,41.89946393510293;-87.6567775258054
514,"2601-2625 S Wabash Ave, Chicago, IL","2601-2625 S WABASH AVE, CHICAGO, IL", -transid is calculated using low address only,41.84554885665057,-87.62517735730876,41.84554885665057;-87.62517735730876
515,"500-518 W 28th Pl also known as 2815-2827 S Wallace St, Chicago, IL","500-518 W 28TH ST, CHICAGO, IL", -transid is calculated using low address only,41.84369958962891,-87.6399892605338,41.84369958962891;-87.6399892605338
516,"1228-1230 N Milwaukee Ave, Chicago, IL","1228-1230 N MILWAUKEE AVE, CHICAGO, IL", -transid is calculated using low address only,41.903970595748916,-87.6676657293862,41.903970595748916;-87.6676657293862
517,"3601-3611 W Cortland St, Chicago, IL","3601-3611 W CORTLAND ST, CHICAGO, IL", -transid is calculated using low address only,41.915352403075026,-87.71677331654803,41.915352403075026;-87.71677331654803
518,"401 S Wacker Dr, Chicago, IL","401 S WACKER DR, CHICAGO, IL",nan,41.87680501145401,-87.63646736425444,41.87680501145401;-87.63646736425444
519,"5600-5602 S Drexel Ave, Chicago, IL","5600-5602 S DREXEL AVE, CHICAGO, IL", -transid is calculated using low address only,41.79309143660869,-87.60393042229163,41.79309143660869;-87.60393042229163
520,"3318 N Troy St, Chicago, IL","3318 N TROY ST, CHICAGO, IL",nan,41.94163664357437,-87.70662517159334,41.94163664357437;-87.70662517159334
521,"835 W Addison St, Chicago, IL","835 W ADDISON ST, CHICAGO, IL",nan,41.947191773865626,-87.65083813240796,41.947191773865626;-87.65083813240796
522,"7901-8071 S Cicero Ave, Chicago, IL","7901-8071 S CICERO AVE, CHICAGO, IL", -transid is calculated using low address only,41.74906505646544,-87.74120390402543,41.74906505646544;-87.74120390402543
523,"500-520 N Desplaines St, Chicago, IL","500-520 N DESPLAINES ST, CHICAGO, IL", -transid is calculated using low address only,41.89127845890863,-87.64451671117615,41.89127845890863;-87.64451671117615
524,"3552 W Grand Ave, Chicago, IL","3552 W GRAND AVE, CHICAGO, IL",nan,41.901912623077855,-87.71540440091492,41.901912623077855;-87.71540440091492
525,"3100 N Leclaire Ave, Chicago, IL","3100 N LECLAIRE AVE, CHICAGO, IL",nan,41.936951123381526,-87.7543212199841,41.936951123381526;-87.7543212199841
526,"1753 W Cornelia Ave, Chicago, IL","1753 W CORNELIA AVE, CHICAGO, IL",nan,41.944990110316056,-87.67333436156987,41.944990110316056;-87.67333436156987
527,"5050-5098 and 5091-5099 W Jackson Blvd, Chicago, IL",nan,BADSTREET,,,---
528,"2244 S Sawyer Ave, Chicago, IL","2244 S SAWYER AVE, CHICAGO, IL",nan,41.850419150633016,-87.70657861209108,41.850419150633016;-87.70657861209108
529,"1200-1234 W Randolph St, Chicago, IL","1200-1234 W RANDOLPH ST, CHICAGO, IL", -transid is calculated using low address only,41.884351914473434,-87.656787588102,41.884351914473434;-87.656787588102
530,"1600 S Laflin St, Chicago, IL","1600 S LAFLIN ST, CHICAGO, IL",nan,41.85959869767849,-87.66395288488546,41.85959869767849;-87.66395288488546
531,"2127 S Marshall Blvd, Chicago, IL","2127 S MARSHALL BLVD, CHICAGO, IL",nan,41.85281745927679,-87.69897302440313,41.85281745927679;-87.69897302440313
532,"1106 W Lawrence Ave, Chicago, IL","1106 W LAWRENCE AVE, CHICAGO, IL",nan,41.96915789659782,-87.65793578029242,41.96915789659782;-87.65793578029242
533,"2821 N Orchard Ave, Chicago, IL","2821 N ORCHARD ST, CHICAGO, IL",STREET_TYPE CORRECTION,41.93341244080847,-87.64654139861698,41.93341244080847;-87.64654139861698
534,"1910 S Calumet Ave, Chicago, IL","1910 S CALUMET AVE, CHICAGO, IL",nan,41.856282934712205,-87.61926383139767,41.856282934712205;-87.61926383139767
535,"1012-1024 W Jackson Blvd, Chicago, IL","1012-1024 W JACKSON BLVD, CHICAGO, IL", -transid is calculated using low address only,41.87797019507887,-87.65249297574624,41.87797019507887;-87.65249297574624
536,"835 W Addison St, Chicago, IL","835 W ADDISON ST, CHICAGO, IL",nan,41.947191773865626,-87.65083813240796,41.947191773865626;-87.65083813240796
537,"2501 N Damen Ave, Chicago, IL","2501 N DAMEN AVE, CHICAGO, IL",nan,41.927243262256596,-87.67795585563583,41.927243262256596;-87.67795585563583
538,"1744 N LeClaire Ave, Chicago, IL","1744 N LECLAIRE AVE, CHICAGO, IL",nan,41.91273672307713,-87.75291207052577,41.91273672307713;-87.75291207052577
539,"2943 N Halsted St, Chicago, IL","2943 N HALSTED ST, CHICAGO, IL",nan,41.93578915834162,-87.64897242706948,41.93578915834162;-87.64897242706948
540,"441 N Kilbourn Ave, Chicago, IL","441 N KILBOURN AVE, CHICAGO, IL",nan,41.8889923059348,-87.73806290380844,41.8889923059348;-87.73806290380844
541,"1030-1050 W North Ave, Chicago, IL","1030-1050 W NORTH AVE, CHICAGO, IL", -transid is calculated using low address only,41.91093166110219,-87.65423264872608,41.91093166110219;-87.65423264872608
542,"7319 N Rogers Ave, Chicago, IL","7319 N ROGERS AVE, CHICAGO, IL",nan,42.014009165880516,-87.67925721000411,42.014009165880516;-87.67925721000411
543,"1523-1547 N Freemont St, Chicago, IL","1523-1547 N FREMONT ST, CHICAGO, IL",STREET NAME CORRECTION -transid is calculated using low address only,41.909234266069575,-87.65091266535602,41.909234266069575;-87.65091266535602
544,"1440-1464 N Magnolia Ave, Chicago, IL","1440-1464 N MAGNOLIA AVE, CHICAGO, IL", -transid is calculated using low address only,41.908333787785125,-87.65961679870914,41.908333787785125;-87.65961679870914
545,"1440-1464 N Magnolia Ave, Chicago, IL","1440-1464 N MAGNOLIA AVE, CHICAGO, IL", -transid is calculated using low address only,41.908333787785125,-87.65961679870914,41.908333787785125;-87.65961679870914
546,"933-943 W Washington Blvd, Chicago, IL","933-943 W WASHINGTON BLVD, CHICAGO, IL", -transid is calculated using low address only,41.88297321916922,-87.6509566474234,41.88297321916922;-87.6509566474234
547,"3248-3256 N Pulaski Rd, Chicago, IL","3248-3256 N PULASKI RD, CHICAGO, IL", -transid is calculated using low address only,41.94048917353705,-87.72737013385941,41.94048917353705;-87.72737013385941
548,"1703 W Chicago Ave, Chicago, IL","1703 W CHICAGO AVE, CHICAGO, IL",nan,41.895921101812604,-87.6698650851386,41.895921101812604;-87.6698650851386
549,"723-741 W Randolph St, Chicago, IL","723-741 W RANDOLPH ST, CHICAGO, IL", -transid is calculated using low address only,41.88430284958823,-87.64660529234459,41.88430284958823;-87.64660529234459
550,"723-741 W Randolph St, Chicago, IL","723-741 W RANDOLPH ST, CHICAGO, IL", -transid is calculated using low address only,41.88430284958823,-87.64660529234459,41.88430284958823;-87.64660529234459
551,"1703 W Chicago Ave, Chicago, IL","1703 W CHICAGO AVE, CHICAGO, IL",nan,41.895921101812604,-87.6698650851386,41.895921101812604;-87.6698650851386
552,"4401-4411 N Milwaukee Ave, Chicago, IL","4401-4411 N MILWAUKEE AVE, CHICAGO, IL", -transid is calculated using low address only,41.96073630102789,-87.75439113227428,41.96073630102789;-87.75439113227428
553,"7152-7190 W North Ave, Chicago, IL","7152-7190 W NORTH AVE, CHICAGO, IL", -transid is calculated using low address only,41.908996543980784,-87.80411944101357,41.908996543980784;-87.80411944101357
554,"1354 W Diversey Pkwy, Chicago, IL","1354 W DIVERSEY PKWY, CHICAGO, IL",nan,41.93259380379691,-87.66335352009844,41.93259380379691;-87.66335352009844
555,"5408 S Dearborn St, Chicago, IL","5408 S DEARBORN ST, CHICAGO, IL",nan,41.79607960879225,-87.6269694223709,41.79607960879225;-87.6269694223709
556,"3217 W Flournoy St, Chicago, IL","3217 W FLOURNOY ST, CHICAGO, IL",nan,41.87266226170322,-87.70661019426005,41.87266226170322;-87.70661019426005
557,"1354 W Diversey Pkwy, Chicago, IL","1354 W DIVERSEY PKWY, CHICAGO, IL",nan,41.93259380379691,-87.66335352009844,41.93259380379691;-87.66335352009844
558,"1539 W Devon Ave, Chicago, IL","1539 W DEVON AVE, CHICAGO, IL",nan,41.99798230762319,-87.66930586791973,41.99798230762319;-87.66930586791973
559,"7740-7744 S Chicago Ave, Chicago, IL",nan,BADADDRESSNUM,,,---
560,"1416 N Maplewood Ave, Chicago, IL","1416 N MAPLEWOOD AVE, CHICAGO, IL",nan,41.907172291122095,-87.69097305715994,41.907172291122095;-87.69097305715994
561,"1776-1830 N Clybourn Ave, Chicago, IL","1776-1830 N CLYBOURN AVE, CHICAGO, IL", -transid is calculated using low address only,41.91339925377605,-87.65319304226009,41.91339925377605;-87.65319304226009
562,"1776-1830 N Clybourn Ave, Chicago, IL","1776-1830 N CLYBOURN AVE, CHICAGO, IL", -transid is calculated using low address only,41.91339925377605,-87.65319304226009,41.91339925377605;-87.65319304226009
563,"7740-7744 S Chicago Ave, Chicago, IL",nan,BADADDRESSNUM,,,---
564,"1416 N Maplewood Ave, Chicago, IL","1416 N MAPLEWOOD AVE, CHICAGO, IL",nan,41.907172291122095,-87.69097305715994,41.907172291122095;-87.69097305715994
565,"2400-2410 N Oakley Ave, Chicago, IL","2400-2410 N OAKLEY AVE, CHICAGO, IL", -transid is calculated using low address only,41.9249674407565,-87.68535772351584,41.9249674407565;-87.68535772351584
566,"2147-2157 S St Louis Ave, Chicago, IL","2147-2157 S ST LOUIS AVE, CHICAGO, IL", -transid is calculated using low address only,41.85210870651992,-87.71220325164997,41.85210870651992;-87.71220325164997
567,"3316-3318 S Morgan St, Chicago, IL","3316-3318 S MORGAN ST, CHICAGO, IL", -transid is calculated using low address only,41.83378663794612,-87.65118564380968,41.83378663794612;-87.65118564380968
568,"4038 W Potomac Ave, Chicago, IL","4038 W POTOMAC AVE, CHICAGO, IL",nan,41.904559594922276,-87.72792939735554,41.904559594922276;-87.72792939735554
569,"4427-4459 N Clark St, Chicago, IL","4427-4459 N CLARK ST, CHICAGO, IL", -transid is calculated using low address only,41.96247512477546,-87.66598739564294,41.96247512477546;-87.66598739564294
570,"7901-8071 S Cicero Ave, Chicago, IL","7901-8071 S CICERO AVE, CHICAGO, IL", -transid is calculated using low address only,41.74906505646544,-87.74120390402543,41.74906505646544;-87.74120390402543
571,"2400-2410 N Oakley Ave, Chicago, IL","2400-2410 N OAKLEY AVE, CHICAGO, IL", -transid is calculated using low address only,41.9249674407565,-87.68535772351584,41.9249674407565;-87.68535772351584
572,"2147-2157 S St Louis Ave, Chicago, IL","2147-2157 S ST LOUIS AVE, CHICAGO, IL", -transid is calculated using low address only,41.85210870651992,-87.71220325164997,41.85210870651992;-87.71220325164997
573,"3316-3318 S Morgan St, Chicago, IL","3316-3318 S MORGAN ST, CHICAGO, IL", -transid is calculated using low address only,41.83378663794612,-87.65118564380968,41.83378663794612;-87.65118564380968
574,"4038 W Potomac Ave, Chicago, IL","4038 W POTOMAC AVE, CHICAGO, IL",nan,41.904559594922276,-87.72792939735554,41.904559594922276;-87.72792939735554
575,"6700 block of W 65th St, Chicago, IL",nan,BADSTREET,,,---
576,"7901-8071 S Cicero Ave, Chicago, IL","7901-8071 S CICERO AVE, CHICAGO, IL", -transid is calculated using low address only,41.74906505646544,-87.74120390402543,41.74906505646544;-87.74120390402543
577,"4427-4459 N Clark St, Chicago, IL","4427-4459 N CLARK ST, CHICAGO, IL", -transid is calculated using low address only,41.96247512477546,-87.66598739564294,41.96247512477546;-87.66598739564294
578,"1828 S Racine Ave, Chicago, IL","1828 S RACINE AVE, CHICAGO, IL",nan,41.85710446405963,-87.6565506231808,41.85710446405963;-87.6565506231808
579,"441 N Kilbourn Ave, Chicago, IL","441 N KILBOURN AVE, CHICAGO, IL",nan,41.8889923059348,-87.73806290380844,41.8889923059348;-87.73806290380844
580,"1030-1050 W North Ave, Chicago, IL","1030-1050 W NORTH AVE, CHICAGO, IL", -transid is calculated using low address only,41.91093166110219,-87.65423264872608,41.91093166110219;-87.65423264872608
581,"1218 W Adams St, Chicago, IL","1218 W ADAMS ST, CHICAGO, IL",nan,41.8791570003975,-87.65783865556715,41.8791570003975;-87.65783865556715
582,"1434-1446 W Fillmore Ave, Chicago, IL","1434-1446 W FILLMORE ST, CHICAGO, IL",STREET_TYPE CORRECTION -transid is calculated using low address only,41.86863443299172,-87.6630274872515,41.86863443299172;-87.6630274872515
583,"138 S Paulina St, Chicago, IL","138 S PAULINA ST, CHICAGO, IL",nan,41.87891757064288,-87.6693764400077,41.87891757064288;-87.6693764400077
584,"812 N Western Ave, Chicago, IL","812 N WESTERN AVE, CHICAGO, IL",nan,41.89619790230896,-87.68700130736089,41.89619790230896;-87.68700130736089
585,"2120 W Webster Ave, Chicago, IL","2120 W WEBSTER AVE, CHICAGO, IL",nan,41.921447085307456,-87.68112090817324,41.921447085307456;-87.68112090817324
586,"601-611 S California Ave, Chicago, IL","601-611 S CALIFORNIA AVE, CHICAGO, IL", -transid is calculated using low address only,41.8737512766647,-87.6959523824903,41.8737512766647;-87.6959523824903
587,"6536 S Dorchester Ave, Chicago, IL","6536 S DORCHESTER AVE, CHICAGO, IL",nan,41.77582832489401,-87.59209659347945,41.77582832489401;-87.59209659347945
588,"3513-3527 W Grenshaw St, Chicago, IL","3513-3527 W GRENSHAW ST, CHICAGO, IL", -transid is calculated using low address only,41.867158784271,-87.7135834749951,41.867158784271;-87.7135834749951
589,"3512-3526 W Roosevelt Rd, Chicago, IL","3512-3526 W ROOSEVELT RD, CHICAGO, IL", -transid is calculated using low address only,41.866422443984455,-87.71356046464625,41.866422443984455;-87.71356046464625
590,"345 W Armitage Ave, Chicago, IL","345 W ARMITAGE AVE, CHICAGO, IL",nan,41.918220945312974,-87.63825244587586,41.918220945312974;-87.63825244587586
591,"2250-2256 W Irving Park Rd, Chicago, IL","2250-2256 W IRVING PARK RD, CHICAGO, IL", -transid is calculated using low address only,41.95416435035004,-87.68564802829324,41.95416435035004;-87.68564802829324
592,"6714 S Stony Island Ave, Chicago, IL","6714 S STONY ISLAND AVE, CHICAGO, IL",nan,41.77285156070486,-87.58644191633562,41.77285156070486;-87.58644191633562
593,"11032 S Vincennes Ave, Chicago, IL","11032 S VINCENNES AVE, CHICAGO, IL",nan,41.693027804196305,-87.66286122244186,41.693027804196305;-87.66286122244186
594,"2149-2159 S Paulina St, Chicago, IL","2149-2159 S PAULINA ST, CHICAGO, IL", -transid is calculated using low address only,41.85264822089938,-87.66836035076363,41.85264822089938;-87.66836035076363
595,"30 N LaSalle St, Chicago, IL","30 N LA SALLE ST, CHICAGO, IL",ALIAS,41.88269466861121,-87.63253142666058,41.88269466861121;-87.63253142666058
596,"2015-2025 S Leavitt St, Chicago, IL","2015-2025 S LEAVITT ST, CHICAGO, IL", -transid is calculated using low address only,41.85429723645491,-87.68066076957122,41.85429723645491;-87.68066076957122
597,"400 N Elizabeth Ave, Chicago, IL","400 N ELIZABETH ST, CHICAGO, IL",STREET_TYPE CORRECTION,41.888947802366346,-87.6590848353183,41.888947802366346;-87.6590848353183
598,"5023-5035 N Lincoln Ave, Chicago, IL","5023-5035 N LINCOLN AVE, CHICAGO, IL", -transid is calculated using low address only,41.97251045831834,-87.6909061719539,41.97251045831834;-87.6909061719539
599,"801-809 S Western Ave, Chicago, IL","801-809 S WESTERN AVE, CHICAGO, IL", -transid is calculated using low address only,41.87132246879171,-87.68602235773064,41.87132246879171;-87.68602235773064
600,"3955 N Kilpatrick Ave, Chicago, IL","3955 N KILPATRICK AVE, CHICAGO, IL",nan,41.95325687723085,-87.74446121917255,41.95325687723085;-87.74446121917255
601,"1700-1706 W Foster Ave, Chicago, IL","1700-1706 W FOSTER AVE, CHICAGO, IL", -transid is calculated using low address only,41.976245518020505,-87.67219289977236,41.976245518020505;-87.67219289977236
602,"1352 W Diversey Pkwy, Chicago, IL","1352 W DIVERSEY PKWY, CHICAGO, IL",nan,41.93259497038526,-87.663275247274,41.93259497038526;-87.663275247274
603,"455 N Carpenter St, Chicago, IL","455 N CARPENTER ST, CHICAGO, IL",nan,41.89054317801508,-87.65329940258331,41.89054317801508;-87.65329940258331
604,"1606 W Balmoral Ave, Chicago, IL","1606 W BALMORAL AVE, CHICAGO, IL",nan,41.97992750382081,-87.6700689940463,41.97992750382081;-87.6700689940463
605,"5353 S Archer Ave, Chicago, IL","5353 S ARCHER AVE, CHICAGO, IL",nan,41.798667492525105,-87.74217626210414,41.798667492525105;-87.74217626210414
606,"3033 W Logan Blvd, Chicago, IL","3033 W LOGAN BLVD, CHICAGO, IL",nan,41.92830171886901,-87.70378779098188,41.92830171886901;-87.70378779098188
607,"1055 W Diversey Pkwy, Chicago, IL","1047 W DIVERSEY PKWY, CHICAGO, IL",nan,41.932495493342245,-87.65581056023315,41.932495493342245;-87.65581056023315
608,"1528 N LaSalle Dr, Chicago, IL","1528 N LA SALLE DR, CHICAGO, IL",ALIAS,41.91002503326107,-87.63325801771049,41.91002503326107;-87.63325801771049
609,"433 W Diversey Pkwy, Chicago, IL","433 W DIVERSEY PKWY, CHICAGO, IL",nan,41.93277423124578,-87.64068504180638,41.93277423124578;-87.64068504180638
610,"8332-8358 S Dr Martin Luther King Jr Dr, Chicago, IL","8332-8358 S DR MARTIN LUTHER KING JR DR, CHICAGO, IL", -transid is calculated using low address only,41.74281129372385,-87.61484504607222,41.74281129372385;-87.61484504607222
611,"1150 W Diversey Pkwy, Chicago, IL","1150 W DIVERSEY PKWY, CHICAGO, IL",nan,41.932680833910034,-87.65786481686084,41.932680833910034;-87.65786481686084
612,"2838-2840 W Shakespeare Ave, Chicago, IL","2838-2840 W SHAKESPEARE AVE, CHICAGO, IL", -transid is calculated using low address only,41.92073904495795,-87.6988400949557,41.92073904495795;-87.6988400949557
613,"5824 N Lincoln Ave, Chicago, IL","5824 N LINCOLN AVE, CHICAGO, IL",nan,41.98722893991484,-87.7023050940284,41.98722893991484;-87.7023050940284
614,"3801-3805 W Grand Ave, Chicago, IL","3801-3805 W GRAND AVE, CHICAGO, IL", -transid is calculated using low address only,41.904135144528645,-87.72161033392166,41.904135144528645;-87.72161033392166
615,"4709-4713 N Lincoln Ave, Chicago, IL","4709-4713 N LINCOLN AVE, CHICAGO, IL", -transid is calculated using low address only,41.96685268567701,-87.68730910211042,41.96685268567701;-87.68730910211042
616,"8080 S DuSable Lake Shore Drive, Chicago, IL",nan,BADSTREET,,,---
617,"1220 W Jackson Blvd, Chicago, IL","1220 W JACKSON BLVD, CHICAGO, IL",nan,41.877886334877225,-87.65789958341115,41.877886334877225;-87.65789958341115
618,"2443-2511 N Kedzie Blvd, Chicago, IL","2443-2511 N KEDZIE BLVD, CHICAGO, IL", -transid is calculated using low address only,41.926287702299,-87.70711609273656,41.926287702299;-87.70711609273656
